name,historical_period,building_type,administrative_region,latitude,longitude,protection_batch,construction_year,preservation_status,architectural_style,floor_area,height,description
咸阳市东塔楼,唐朝,塔楼,陕西省咸阳市,37.9975456366807,108.70403702028823,2,710,较好,传统建筑风格,3101.0812223320354,8.616033551045156,这是一座建于唐朝（公元710年）的塔楼，位于陕西省咸阳市，建筑风格为传统建筑风格。建筑面积3101平方米，高8米，目前保存状况较好。是第2批重点文物保护单位。
福州市北桥梁,清朝,桥梁,福建省福州市,31.832165432094172,105.32593484849347,6,1791,较好,传统建筑风格,4201.348394402595,9.401740016777039,这是一座建于清朝（公元1791年）的桥梁，位于福建省福州市，建筑风格为传统建筑风格。建筑面积4201平方米，高9米，目前保存状况较好。
晋中市南道观,清朝,道观,山西省晋中市,23.479159910723915,109.80959927152124,7,1732,一般,地方特色风格,4385.463325671297,17.868884622880657,这是一座建于清朝（公元1732年）的道观，位于山西省晋中市，建筑风格为地方特色风格。建筑面积4385平方米，高17米，目前保存状况一般。
大同市中寺庙,宋朝,寺庙,山西省大同市,22.74343983945781,105.8990718157969,4,1007,完好,藏传佛教风格,24502.837754783584,15.474789146109817,这是一座建于宋朝（公元1007年）的寺庙，位于山西省大同市，建筑风格为藏传佛教风格。建筑面积24502平方米，高15米，目前保存状况完好。是第4批重点文物保护单位。
漳州市中祠堂,明朝,祠堂,福建省漳州市,39.96228553975353,115.05680280615518,6,1575,一般,徽派建筑风格,555.7723084371469,6.369774764074532,这是一座建于明朝（公元1575年）的祠堂，位于福建省漳州市，建筑风格为徽派建筑风格。建筑面积555平方米，高6米，目前保存状况一般。
朝阳区北钟楼,元朝,钟楼,北京市朝阳区,33.83656246916738,113.90971892209792,5,1340,一般,地方特色风格,987.5479895021069,13.60655050806505,这是一座建于元朝（公元1340年）的钟楼，位于北京市朝阳区，建筑风格为地方特色风格。建筑面积987平方米，高13米，目前保存状况一般。
朝阳区南戏台,元朝,戏台,北京市朝阳区,33.01665662167542,113.56618344912924,6,1294,一般,地方特色风格,4038.830777170682,10.71537725822249,这是一座建于元朝（公元1294年）的戏台，位于北京市朝阳区，建筑风格为地方特色风格。建筑面积4038平方米，高10米，目前保存状况一般。
漳州市北戏台,唐朝,戏台,福建省漳州市,32.904675947409636,104.24284143496729,2,668,较好,地方特色风格,4894.795862394742,18.73608905173639,这是一座建于唐朝（公元668年）的戏台，位于福建省漳州市，建筑风格为地方特色风格。建筑面积4894平方米，高18米，目前保存状况较好。是第2批重点文物保护单位。
咸阳市西塔楼,清朝,塔楼,陕西省咸阳市,38.59148956028279,107.81738501295223,8,1802,完好,传统建筑风格,4567.663479645419,9.742222185108712,这是一座建于清朝（公元1802年）的塔楼，位于陕西省咸阳市，建筑风格为传统建筑风格。建筑面积4567平方米，高9米，目前保存状况完好。
扬州市西会馆,宋朝,会馆,江苏省扬州市,24.840283263443904,108.64578445613526,2,1169,较好,地方特色风格,1375.1134993308456,11.523912082713565,这是一座建于宋朝（公元1169年）的会馆，位于江苏省扬州市，建筑风格为地方特色风格。建筑面积1375平方米，高11米，目前保存状况较好。是第2批重点文物保护单位。
漳州市东驿站,清朝,驿站,福建省漳州市,37.27418182760836,105.17367941231834,8,1696,较差,地方特色风格,2061.7443852120514,13.793412481129113,这是一座建于清朝（公元1696年）的驿站，位于福建省漳州市，建筑风格为地方特色风格。建筑面积2061平方米，高13米，目前保存状况较差。
厦门市东民居,唐朝,民居,福建省厦门市,26.923490839258587,119.38374632745325,2,830,较好,江南水乡民居风格,1131.584243388974,8.317109686373076,这是一座建于唐朝（公元830年）的民居，位于福建省厦门市，建筑风格为江南水乡民居风格。建筑面积1131平方米，高8米，目前保存状况较好。是第2批重点文物保护单位。
西安市东驿站,宋朝,驿站,陕西省西安市,35.3865083335249,104.34711592700162,1,1099,较好,传统建筑风格,3864.2037965183968,9.340944414228609,这是一座建于宋朝（公元1099年）的驿站，位于陕西省西安市，建筑风格为传统建筑风格。建筑面积3864平方米，高9米，目前保存状况较好。是第1批重点文物保护单位。
镇江市中官邸,元朝,官邸,江苏省镇江市,24.975993736910272,116.95465262538251,6,1288,一般,传统建筑风格,4250.2063827291695,15.871905907546845,这是一座建于元朝（公元1288年）的官邸，位于江苏省镇江市，建筑风格为传统建筑风格。建筑面积4250平方米，高15米，目前保存状况一般。
杭州市东戏台,宋朝,戏台,浙江省杭州市,27.60184895005546,103.10159085102123,6,1071,一般,传统建筑风格,4685.936098432856,14.336910628208239,这是一座建于宋朝（公元1071年）的戏台，位于浙江省杭州市，建筑风格为传统建筑风格。建筑面积4685平方米，高14米，目前保存状况一般。
苏州市中庙宇,元朝,庙宇,江苏省苏州市,28.036806971205237,106.32186293968525,6,1285,较差,传统建筑风格,686.2095940958741,16.069987731210112,这是一座建于元朝（公元1285年）的庙宇，位于江苏省苏州市，建筑风格为传统建筑风格。建筑面积686平方米，高16米，目前保存状况较差。
绍兴市南官邸,宋朝,官邸,浙江省绍兴市,29.16580185893553,109.90318541529516,2,1098,较好,传统建筑风格,2252.578698859295,11.257507717014327,这是一座建于宋朝（公元1098年）的官邸，位于浙江省绍兴市，建筑风格为传统建筑风格。建筑面积2252平方米，高11米，目前保存状况较好。是第2批重点文物保护单位。
湖州市西民居,元朝,民居,浙江省湖州市,22.81583396203522,111.69954910376025,1,1333,完好,福建土楼风格,445.5516835987993,11.042406070931698,这是一座建于元朝（公元1333年）的民居，位于浙江省湖州市，建筑风格为福建土楼风格。建筑面积445平方米，高11米，目前保存状况完好。是第1批重点文物保护单位。
漳州市中桥梁,元朝,桥梁,福建省漳州市,21.128916292114685,102.07802364547159,1,1360,完好,传统建筑风格,3570.030551640139,16.812933531187724,这是一座建于元朝（公元1360年）的桥梁，位于福建省漳州市，建筑风格为传统建筑风格。建筑面积3570平方米，高16米，目前保存状况完好。是第1批重点文物保护单位。
西城区北古城墙,元朝,古城墙,北京市西城区,27.741315637495383,117.85689739495622,7,1301,一般,地方特色风格,3054.5035474657916,8.760624460681665,这是一座建于元朝（公元1301年）的古城墙，位于北京市西城区，建筑风格为地方特色风格。建筑面积3054平方米，高8米，目前保存状况一般。
西城区东官邸,元朝,官邸,北京市西城区,35.67294550975187,113.55106036944954,7,1283,一般,地方特色风格,3681.6740817833465,9.224435825307033,这是一座建于元朝（公元1283年）的官邸，位于北京市西城区，建筑风格为地方特色风格。建筑面积3681平方米，高9米，目前保存状况一般。
宁波市北书院,唐朝,书院,浙江省宁波市,30.708066569399378,117.83289765379085,4,669,完好,传统建筑风格,2593.373847875619,17.20156029642114,这是一座建于唐朝（公元669年）的书院，位于浙江省宁波市，建筑风格为传统建筑风格。建筑面积2593平方米，高17米，目前保存状况完好。是第4批重点文物保护单位。
汉中市东钟楼,元朝,钟楼,陕西省汉中市,32.199728176805,107.33378988951658,3,1294,完好,地方特色风格,4383.269143522799,12.255497583798984,这是一座建于元朝（公元1294年）的钟楼，位于陕西省汉中市，建筑风格为地方特色风格。建筑面积4383平方米，高12米，目前保存状况完好。是第3批重点文物保护单位。
海淀区东城门,明朝,城门,北京市海淀区,35.57457628640908,102.0822434802617,1,1447,较好,传统建筑风格,2178.4249591305534,8.757792998729602,这是一座建于明朝（公元1447年）的城门，位于北京市海淀区，建筑风格为传统建筑风格。建筑面积2178平方米，高8米，目前保存状况较好。是第1批重点文物保护单位。
杭州市东牌坊,宋朝,牌坊,浙江省杭州市,39.2038775141937,100.40855579305664,6,1168,一般,传统建筑风格,1242.5002506935257,9.33398863960645,这是一座建于宋朝（公元1168年）的牌坊，位于浙江省杭州市，建筑风格为传统建筑风格。建筑面积1242平方米，高9米，目前保存状况一般。
太原市北桥梁,明朝,桥梁,山西省太原市,34.812999895301814,111.44736956247313,7,1515,完好,地方特色风格,4108.5659019457935,17.392573308671302,这是一座建于明朝（公元1515年）的桥梁，位于山西省太原市，建筑风格为地方特色风格。建筑面积4108平方米，高17米，目前保存状况完好。
漳州市中祠堂,唐朝,祠堂,福建省漳州市,38.63653278969955,102.61954014529518,3,855,完好,岭南祠堂风格,1084.473229885958,6.59069903104646,这是一座建于唐朝（公元855年）的祠堂，位于福建省漳州市，建筑风格为岭南祠堂风格。建筑面积1084平方米，高6米，目前保存状况完好。是第3批重点文物保护单位。
南京市北鼓楼,唐朝,鼓楼,江苏省南京市,23.702614824566048,119.44484037192709,1,897,完好,地方特色风格,1570.297525421847,10.081390732713924,这是一座建于唐朝（公元897年）的鼓楼，位于江苏省南京市，建筑风格为地方特色风格。建筑面积1570平方米，高10米，目前保存状况完好。是第1批重点文物保护单位。
太原市西塔楼,宋朝,塔楼,山西省太原市,37.61975157895602,119.89062457607753,3,1173,完好,地方特色风格,4425.765748497346,8.460696870942263,这是一座建于宋朝（公元1173年）的塔楼，位于山西省太原市，建筑风格为地方特色风格。建筑面积4425平方米，高8米，目前保存状况完好。是第3批重点文物保护单位。
福州市南道观,清朝,道观,福建省福州市,26.325459248023254,115.58651164329322,7,1655,完好,传统建筑风格,3011.4472486151985,14.801335840810228,这是一座建于清朝（公元1655年）的道观，位于福建省福州市，建筑风格为传统建筑风格。建筑面积3011平方米，高14米，目前保存状况完好。
西安市东祠堂,明朝,祠堂,陕西省西安市,28.057066771545358,115.45049373020436,8,1607,较好,岭南祠堂风格,739.1464406377626,6.6717288837222455,这是一座建于明朝（公元1607年）的祠堂，位于陕西省西安市，建筑风格为岭南祠堂风格。建筑面积739平方米，高6米，目前保存状况较好。
绍兴市北宫殿,清朝,宫殿,浙江省绍兴市,26.948717924627545,111.36744005278632,6,1654,较好,重檐歇山顶风格,13110.318557060024,29.554408232750095,这是一座建于清朝（公元1654年）的宫殿，位于浙江省绍兴市，建筑风格为重檐歇山顶风格。建筑面积13110平方米，高29米，目前保存状况较好。
湖州市北官邸,宋朝,官邸,浙江省湖州市,27.608521015870455,115.54877508824414,2,964,完好,传统建筑风格,3389.3037553406143,18.2111568966461,这是一座建于宋朝（公元964年）的官邸，位于浙江省湖州市，建筑风格为传统建筑风格。建筑面积3389平方米，高18米，目前保存状况完好。是第2批重点文物保护单位。
泉州市西塔楼,明朝,塔楼,福建省泉州市,21.20266770525181,110.59410236755926,1,1480,较好,传统建筑风格,3220.938998064422,8.302248291881124,这是一座建于明朝（公元1480年）的塔楼，位于福建省泉州市，建筑风格为传统建筑风格。建筑面积3220平方米，高8米，目前保存状况较好。是第1批重点文物保护单位。
扬州市西牌坊,元朝,牌坊,江苏省扬州市,21.023847609975057,114.75659887885273,1,1351,较好,地方特色风格,3843.694017094912,19.615566207405116,这是一座建于元朝（公元1351年）的牌坊，位于江苏省扬州市，建筑风格为地方特色风格。建筑面积3843平方米，高19米，目前保存状况较好。是第1批重点文物保护单位。
厦门市西会馆,唐朝,会馆,福建省厦门市,25.188966495405765,101.63539243927792,2,831,较好,传统建筑风格,3535.2062308362097,13.2131425705393,这是一座建于唐朝（公元831年）的会馆，位于福建省厦门市，建筑风格为传统建筑风格。建筑面积3535平方米，高13米，目前保存状况较好。是第2批重点文物保护单位。
厦门市东寺庙,宋朝,寺庙,福建省厦门市,21.0012958988909,117.55356881052464,8,1181,较差,唐代佛寺风格,15346.570874613104,23.687290337291792,这是一座建于宋朝（公元1181年）的寺庙，位于福建省厦门市，建筑风格为唐代佛寺风格。建筑面积15346平方米，高23米，目前保存状况较差。
泉州市西庙宇,元朝,庙宇,福建省泉州市,38.43696555259648,114.51444556615891,2,1318,较好,地方特色风格,2982.6630661869467,15.318451451084362,这是一座建于元朝（公元1318年）的庙宇，位于福建省泉州市，建筑风格为地方特色风格。建筑面积2982平方米，高15米，目前保存状况较好。是第2批重点文物保护单位。
东城区南戏台,清朝,戏台,北京市东城区,33.41644533913831,106.20678075015715,7,1810,完好,地方特色风格,1597.9715582447616,15.622433547364189,这是一座建于清朝（公元1810年）的戏台，位于北京市东城区，建筑风格为地方特色风格。建筑面积1597平方米，高15米，目前保存状况完好。
延安市东宫殿,明朝,宫殿,陕西省延安市,29.151513882415614,116.09181085156959,6,1527,完好,宫廷建筑风格,22467.503669359747,23.304785411939832,这是一座建于明朝（公元1527年）的宫殿，位于陕西省延安市，建筑风格为宫廷建筑风格。建筑面积22467平方米，高23米，目前保存状况完好。
镇江市北古城墙,清朝,古城墙,江苏省镇江市,39.92779104819408,105.2866686774794,8,1763,完好,地方特色风格,3941.35748075289,8.434284997875885,这是一座建于清朝（公元1763年）的古城墙，位于江苏省镇江市，建筑风格为地方特色风格。建筑面积3941平方米，高8米，目前保存状况完好。
西城区南寺庙,明朝,寺庙,北京市西城区,39.47300302540744,110.56168144208576,2,1475,较好,藏传佛教风格,15663.217234129406,26.563104432265366,这是一座建于明朝（公元1475年）的寺庙，位于北京市西城区，建筑风格为藏传佛教风格。建筑面积15663平方米，高26米，目前保存状况较好。是第2批重点文物保护单位。
苏州市东钟楼,元朝,钟楼,江苏省苏州市,31.780429412637194,115.86708027680005,1,1290,较好,地方特色风格,4073.5899183104184,18.38225735697694,这是一座建于元朝（公元1290年）的钟楼，位于江苏省苏州市，建筑风格为地方特色风格。建筑面积4073平方米，高18米，目前保存状况较好。是第1批重点文物保护单位。
苏州市东鼓楼,明朝,鼓楼,江苏省苏州市,27.512375706975355,104.44331072969524,3,1497,较好,地方特色风格,4330.7192665147695,9.702430857610327,这是一座建于明朝（公元1497年）的鼓楼，位于江苏省苏州市，建筑风格为地方特色风格。建筑面积4330平方米，高9米，目前保存状况较好。是第3批重点文物保护单位。
漳州市北书院,唐朝,书院,福建省漳州市,36.023342881091395,114.07216056758551,4,832,较好,传统建筑风格,3569.2478685986375,18.300846126652402,这是一座建于唐朝（公元832年）的书院，位于福建省漳州市，建筑风格为传统建筑风格。建筑面积3569平方米，高18米，目前保存状况较好。是第4批重点文物保护单位。
朝阳区南塔楼,唐朝,塔楼,北京市朝阳区,36.08201771900024,117.57635467414768,1,669,完好,地方特色风格,1968.9636444072532,13.42728065237523,这是一座建于唐朝（公元669年）的塔楼，位于北京市朝阳区，建筑风格为地方特色风格。建筑面积1968平方米，高13米，目前保存状况完好。是第1批重点文物保护单位。
扬州市东塔楼,明朝,塔楼,江苏省扬州市,36.32103291325214,103.4953555710184,6,1594,较好,地方特色风格,3781.8130017430117,19.989361006579834,这是一座建于明朝（公元1594年）的塔楼，位于江苏省扬州市，建筑风格为地方特色风格。建筑面积3781平方米，高19米，目前保存状况较好。
太原市南民居,明朝,民居,山西省太原市,34.045748494195536,108.76301095891694,6,1547,较好,北方四合院风格,983.2513518910133,9.200624603426178,这是一座建于明朝（公元1547年）的民居，位于山西省太原市，建筑风格为北方四合院风格。建筑面积983平方米，高9米，目前保存状况较好。
西城区中书院,明朝,书院,北京市西城区,31.575851108459638,115.23029141989528,4,1409,完好,地方特色风格,4952.615080626018,12.082339386806002,这是一座建于明朝（公元1409年）的书院，位于北京市西城区，建筑风格为地方特色风格。建筑面积4952平方米，高12米，目前保存状况完好。是第4批重点文物保护单位。
晋中市中宫殿,明朝,宫殿,山西省晋中市,38.35558717497465,117.61358834759429,5,1505,较好,攒尖顶风格,42086.20217901394,18.913098931906042,这是一座建于明朝（公元1505年）的宫殿，位于山西省晋中市，建筑风格为攒尖顶风格。建筑面积42086平方米，高18米，目前保存状况较好。
宁波市南宫殿,元朝,宫殿,浙江省宁波市,33.00648687293773,109.1230805495282,1,1309,较好,重檐歇山顶风格,17638.018084556763,27.15068797240245,这是一座建于元朝（公元1309年）的宫殿，位于浙江省宁波市，建筑风格为重檐歇山顶风格。建筑面积17638平方米，高27米，目前保存状况较好。是第1批重点文物保护单位。
海淀区中塔楼,宋朝,塔楼,北京市海淀区,27.18632019403737,106.01988273454519,4,1176,较好,地方特色风格,898.8571066952179,10.824146412002182,这是一座建于宋朝（公元1176年）的塔楼，位于北京市海淀区，建筑风格为地方特色风格。建筑面积898平方米，高10米，目前保存状况较好。是第4批重点文物保护单位。
漳州市北佛塔,宋朝,佛塔,福建省漳州市,27.428314530049278,119.71930147694641,2,974,较好,地方特色风格,3308.9714712888576,13.689111591049802,这是一座建于宋朝（公元974年）的佛塔，位于福建省漳州市，建筑风格为地方特色风格。建筑面积3308平方米，高13米，目前保存状况较好。是第2批重点文物保护单位。
湖州市南民居,唐朝,民居,浙江省湖州市,20.187675965848292,105.75690468246776,3,873,完好,徽派民居风格,1788.0793629620916,7.414387181212939,这是一座建于唐朝（公元873年）的民居，位于浙江省湖州市，建筑风格为徽派民居风格。建筑面积1788平方米，高7米，目前保存状况完好。是第3批重点文物保护单位。
平遥县西道观,明朝,道观,山西省平遥县,25.29151733724288,111.14568909245145,5,1527,较差,地方特色风格,2990.5363513751167,14.804862211934523,这是一座建于明朝（公元1527年）的道观，位于山西省平遥县，建筑风格为地方特色风格。建筑面积2990平方米，高14米，目前保存状况较差。
苏州市北戏台,宋朝,戏台,江苏省苏州市,34.03863470645027,101.38500511024634,2,994,较好,传统建筑风格,3493.84412917976,9.25832901091367,这是一座建于宋朝（公元994年）的戏台，位于江苏省苏州市，建筑风格为传统建筑风格。建筑面积3493平方米，高9米，目前保存状况较好。是第2批重点文物保护单位。
厦门市西庙宇,唐朝,庙宇,福建省厦门市,39.856278366430296,117.55919121341374,2,712,完好,地方特色风格,3435.360790229858,16.02768807307021,这是一座建于唐朝（公元712年）的庙宇，位于福建省厦门市，建筑风格为地方特色风格。建筑面积3435平方米，高16米，目前保存状况完好。是第2批重点文物保护单位。
咸阳市西宫殿,唐朝,宫殿,陕西省咸阳市,21.041862353263415,108.91326409295856,5,639,较差,攒尖顶风格,34097.33387518766,22.922624163227827,这是一座建于唐朝（公元639年）的宫殿，位于陕西省咸阳市，建筑风格为攒尖顶风格。建筑面积34097平方米，高22米，目前保存状况较差。
扬州市北戏台,元朝,戏台,江苏省扬州市,25.109354159857617,117.40445853206056,5,1342,一般,传统建筑风格,1199.4582525690955,19.375374659797277,这是一座建于元朝（公元1342年）的戏台，位于江苏省扬州市，建筑风格为传统建筑风格。建筑面积1199平方米，高19米，目前保存状况一般。
湖州市北古城墙,元朝,古城墙,浙江省湖州市,20.680947502661063,119.49674869761355,7,1289,一般,地方特色风格,2372.4392839414604,19.393685686096102,这是一座建于元朝（公元1289年）的古城墙，位于浙江省湖州市，建筑风格为地方特色风格。建筑面积2372平方米，高19米，目前保存状况一般。
大同市北祠堂,元朝,祠堂,山西省大同市,29.194642207948725,108.97254947192503,2,1341,完好,岭南祠堂风格,752.6764935838144,11.47367092240516,这是一座建于元朝（公元1341年）的祠堂，位于山西省大同市，建筑风格为岭南祠堂风格。建筑面积752平方米，高11米，目前保存状况完好。是第2批重点文物保护单位。
朝阳区西书院,清朝,书院,北京市朝阳区,26.823526682784248,109.23207615915689,6,1875,一般,传统建筑风格,2601.3174080280937,17.062247075639412,这是一座建于清朝（公元1875年）的书院，位于北京市朝阳区，建筑风格为传统建筑风格。建筑面积2601平方米，高17米，目前保存状况一般。
海淀区西道观,元朝,道观,北京市海淀区,29.598255177831447,109.72994837527253,1,1292,完好,地方特色风格,1796.5711485012105,19.666377671847066,这是一座建于元朝（公元1292年）的道观，位于北京市海淀区，建筑风格为地方特色风格。建筑面积1796平方米，高19米，目前保存状况完好。是第1批重点文物保护单位。
汉中市南塔楼,宋朝,塔楼,陕西省汉中市,30.478123860536062,115.48928224796792,1,1185,完好,传统建筑风格,908.63353660815,10.148281248337973,这是一座建于宋朝（公元1185年）的塔楼，位于陕西省汉中市，建筑风格为传统建筑风格。建筑面积908平方米，高10米，目前保存状况完好。是第1批重点文物保护单位。
西城区东祠堂,明朝,祠堂,北京市西城区,34.76376224598917,102.97243993761738,7,1623,较好,徽派建筑风格,377.02206906684944,8.953457378830993,这是一座建于明朝（公元1623年）的祠堂，位于北京市西城区，建筑风格为徽派建筑风格。建筑面积377平方米，高8米，目前保存状况较好。
南京市南官邸,元朝,官邸,江苏省南京市,20.415886926863923,103.63232950394718,7,1281,一般,传统建筑风格,1131.7513013628804,19.20790441324184,这是一座建于元朝（公元1281年）的官邸，位于江苏省南京市，建筑风格为传统建筑风格。建筑面积1131平方米，高19米，目前保存状况一般。
泉州市西古城墙,清朝,古城墙,福建省泉州市,28.280372241767004,114.0373754218763,7,1861,较好,地方特色风格,4102.342466370165,8.469151967909939,这是一座建于清朝（公元1861年）的古城墙，位于福建省泉州市，建筑风格为地方特色风格。建筑面积4102平方米，高8米，目前保存状况较好。
平遥县西宫殿,清朝,宫殿,山西省平遥县,28.50656812363763,106.20595573243635,6,1883,较好,攒尖顶风格,9332.112153633792,19.25912694583301,这是一座建于清朝（公元1883年）的宫殿，位于山西省平遥县，建筑风格为攒尖顶风格。建筑面积9332平方米，高19米，目前保存状况较好。
西安市西钟楼,清朝,钟楼,陕西省西安市,26.224465285556654,103.80005677084085,7,1739,较好,传统建筑风格,1111.0812086113006,19.84547753098778,这是一座建于清朝（公元1739年）的钟楼，位于陕西省西安市，建筑风格为传统建筑风格。建筑面积1111平方米，高19米，目前保存状况较好。
厦门市北官邸,宋朝,官邸,福建省厦门市,39.55256027909789,117.81038936746022,6,1145,一般,地方特色风格,3736.187778641033,12.38713730044304,这是一座建于宋朝（公元1145年）的官邸，位于福建省厦门市，建筑风格为地方特色风格。建筑面积3736平方米，高12米，目前保存状况一般。
汉中市中庙宇,唐朝,庙宇,陕西省汉中市,25.772088012544877,100.20090717423086,2,732,较好,传统建筑风格,2892.9989961213882,9.55096265791221,这是一座建于唐朝（公元732年）的庙宇，位于陕西省汉中市，建筑风格为传统建筑风格。建筑面积2892平方米，高9米，目前保存状况较好。是第2批重点文物保护单位。
大同市南庙宇,明朝,庙宇,山西省大同市,24.252274484605344,103.00981918288403,7,1569,较好,传统建筑风格,2796.279651457032,16.601351576098494,这是一座建于明朝（公元1569年）的庙宇，位于山西省大同市，建筑风格为传统建筑风格。建筑面积2796平方米，高16米，目前保存状况较好。
苏州市中驿站,明朝,驿站,江苏省苏州市,29.99229826806242,103.4801525293875,7,1476,较差,传统建筑风格,2784.336814432554,8.183420359204865,这是一座建于明朝（公元1476年）的驿站，位于江苏省苏州市，建筑风格为传统建筑风格。建筑面积2784平方米，高8米，目前保存状况较差。
南京市西庙宇,宋朝,庙宇,江苏省南京市,27.732726144654293,109.62152242897508,3,1191,较好,传统建筑风格,4181.231748326651,10.711530827850726,这是一座建于宋朝（公元1191年）的庙宇，位于江苏省南京市，建筑风格为传统建筑风格。建筑面积4181平方米，高10米，目前保存状况较好。是第3批重点文物保护单位。
延安市西鼓楼,元朝,鼓楼,陕西省延安市,33.354257051265165,116.56732661994101,7,1355,较差,地方特色风格,3970.52953401919,10.62838405024656,这是一座建于元朝（公元1355年）的鼓楼，位于陕西省延安市，建筑风格为地方特色风格。建筑面积3970平方米，高10米，目前保存状况较差。
东城区北宫殿,宋朝,宫殿,北京市东城区,23.80900696467531,116.11065408746028,8,979,一般,重檐歇山顶风格,14045.873570506415,29.16768181379126,这是一座建于宋朝（公元979年）的宫殿，位于北京市东城区，建筑风格为重檐歇山顶风格。建筑面积14045平方米，高29米，目前保存状况一般。
镇江市南官邸,清朝,官邸,江苏省镇江市,32.811596152386336,118.67306231321842,8,1744,完好,传统建筑风格,4906.026733602482,15.983531344244343,这是一座建于清朝（公元1744年）的官邸，位于江苏省镇江市，建筑风格为传统建筑风格。建筑面积4906平方米，高15米，目前保存状况完好。
宁波市中宫殿,清朝,宫殿,浙江省宁波市,30.54582110787841,118.36394213810328,5,1828,一般,重檐歇山顶风格,44862.0261216354,23.600502979905485,这是一座建于清朝（公元1828年）的宫殿，位于浙江省宁波市，建筑风格为重檐歇山顶风格。建筑面积44862平方米，高23米，目前保存状况一般。
西城区南牌坊,清朝,牌坊,北京市西城区,30.67404069065844,106.48021967433867,7,1712,较好,传统建筑风格,4271.9705048287515,8.316075678418754,这是一座建于清朝（公元1712年）的牌坊，位于北京市西城区，建筑风格为传统建筑风格。建筑面积4271平方米，高8米，目前保存状况较好。
漳州市西戏台,元朝,戏台,福建省漳州市,26.428528581338487,118.22543340547284,1,1302,完好,地方特色风格,999.9020363578079,8.363966432512118,这是一座建于元朝（公元1302年）的戏台，位于福建省漳州市，建筑风格为地方特色风格。建筑面积999平方米，高8米，目前保存状况完好。是第1批重点文物保护单位。
漳州市南官邸,唐朝,官邸,福建省漳州市,22.64355542268101,107.9818455391588,4,824,完好,地方特色风格,3371.3842978992066,9.909789288970726,这是一座建于唐朝（公元824年）的官邸，位于福建省漳州市，建筑风格为地方特色风格。建筑面积3371平方米，高9米，目前保存状况完好。是第4批重点文物保护单位。
西城区北鼓楼,宋朝,鼓楼,北京市西城区,20.208189111792365,111.92645219517284,5,1144,一般,传统建筑风格,3369.9571978233585,11.321738555695738,这是一座建于宋朝（公元1144年）的鼓楼，位于北京市西城区，建筑风格为传统建筑风格。建筑面积3369平方米，高11米，目前保存状况一般。
平遥县南园林,清朝,园林,山西省平遥县,24.00399111920675,119.58647154253521,5,1744,较好,北方园林风格,2108.4688448645447,18.218051576483358,这是一座建于清朝（公元1744年）的园林，位于山西省平遥县，建筑风格为北方园林风格。建筑面积2108平方米，高18米，目前保存状况较好。
福州市西民居,清朝,民居,福建省福州市,20.318935211347547,103.92055732680686,8,1840,完好,北方四合院风格,587.2359095080861,7.785418135911684,这是一座建于清朝（公元1840年）的民居，位于福建省福州市，建筑风格为北方四合院风格。建筑面积587平方米，高7米，目前保存状况完好。
汉中市中牌坊,明朝,牌坊,陕西省汉中市,20.46685736515772,109.67799471081769,5,1523,较好,传统建筑风格,4007.608862559617,16.188310594547275,这是一座建于明朝（公元1523年）的牌坊，位于陕西省汉中市，建筑风格为传统建筑风格。建筑面积4007平方米，高16米，目前保存状况较好。
厦门市中祠堂,唐朝,祠堂,福建省厦门市,33.6292793374205,106.33943610293456,2,869,完好,江南祠堂风格,1509.093908212429,7.146746184719384,这是一座建于唐朝（公元869年）的祠堂，位于福建省厦门市，建筑风格为江南祠堂风格。建筑面积1509平方米，高7米，目前保存状况完好。是第2批重点文物保护单位。
朝阳区北佛塔,明朝,佛塔,北京市朝阳区,31.231226164945348,104.9990330589377,3,1448,较好,传统建筑风格,4460.595851450362,10.481794281923703,这是一座建于明朝（公元1448年）的佛塔，位于北京市朝阳区，建筑风格为传统建筑风格。建筑面积4460平方米，高10米，目前保存状况较好。是第3批重点文物保护单位。
平遥县南庙宇,清朝,庙宇,山西省平遥县,22.840765636606438,107.46917643483324,8,1724,一般,地方特色风格,3526.8245597248642,18.937526284391588,这是一座建于清朝（公元1724年）的庙宇，位于山西省平遥县，建筑风格为地方特色风格。建筑面积3526平方米，高18米，目前保存状况一般。
平遥县南戏台,元朝,戏台,山西省平遥县,35.794441799909684,103.0041280161171,7,1309,一般,地方特色风格,4349.235697292124,10.861073543789214,这是一座建于元朝（公元1309年）的戏台，位于山西省平遥县，建筑风格为地方特色风格。建筑面积4349平方米，高10米，目前保存状况一般。
太原市南塔楼,清朝,塔楼,山西省太原市,39.45925022513849,115.50374532284503,5,1660,较好,地方特色风格,3117.579085617601,9.254151121410366,这是一座建于清朝（公元1660年）的塔楼，位于山西省太原市，建筑风格为地方特色风格。建筑面积3117平方米，高9米，目前保存状况较好。
湖州市西庙宇,清朝,庙宇,浙江省湖州市,23.230666658961663,114.4853707401902,7,1783,一般,地方特色风格,1667.8262061110397,10.974697069448329,这是一座建于清朝（公元1783年）的庙宇，位于浙江省湖州市，建筑风格为地方特色风格。建筑面积1667平方米，高10米，目前保存状况一般。
扬州市南民居,元朝,民居,江苏省扬州市,31.10054695586819,116.7992060061981,4,1342,完好,江南水乡民居风格,1073.2519252518725,9.936036514813807,这是一座建于元朝（公元1342年）的民居，位于江苏省扬州市，建筑风格为江南水乡民居风格。建筑面积1073平方米，高9米，目前保存状况完好。是第4批重点文物保护单位。
延安市南园林,元朝,园林,陕西省延安市,22.44517810464753,114.98459488942521,2,1342,完好,岭南园林风格,876.6452422800295,8.390616302417417,这是一座建于元朝（公元1342年）的园林，位于陕西省延安市，建筑风格为岭南园林风格。建筑面积876平方米，高8米，目前保存状况完好。是第2批重点文物保护单位。
海淀区北佛塔,唐朝,佛塔,北京市海淀区,28.06087097493723,109.2311891496927,2,630,较好,地方特色风格,4953.950956062359,15.436378818051965,这是一座建于唐朝（公元630年）的佛塔，位于北京市海淀区，建筑风格为地方特色风格。建筑面积4953平方米，高15米，目前保存状况较好。是第2批重点文物保护单位。
苏州市中塔楼,清朝,塔楼,江苏省苏州市,29.770733758068246,106.8513902020405,5,1850,较好,传统建筑风格,3345.044504515582,19.565131928663593,这是一座建于清朝（公元1850年）的塔楼，位于江苏省苏州市，建筑风格为传统建筑风格。建筑面积3345平方米，高19米，目前保存状况较好。
湖州市西佛塔,唐朝,佛塔,浙江省湖州市,24.417080850785577,104.11208983743455,5,840,一般,地方特色风格,2170.875556768501,12.960296408918731,这是一座建于唐朝（公元840年）的佛塔，位于浙江省湖州市，建筑风格为地方特色风格。建筑面积2170平方米，高12米，目前保存状况一般。
漳州市西官邸,唐朝,官邸,福建省漳州市,21.771089294080262,110.9664945113977,4,632,完好,传统建筑风格,3804.3750165472234,19.497550516637393,这是一座建于唐朝（公元632年）的官邸，位于福建省漳州市，建筑风格为传统建筑风格。建筑面积3804平方米，高19米，目前保存状况完好。是第4批重点文物保护单位。
大同市南宫殿,宋朝,宫殿,山西省大同市,31.45480423055468,118.27163569246581,4,1090,较好,攒尖顶风格,14728.66402938978,25.675397233906022,这是一座建于宋朝（公元1090年）的宫殿，位于山西省大同市，建筑风格为攒尖顶风格。建筑面积14728平方米，高25米，目前保存状况较好。是第4批重点文物保护单位。
咸阳市中庙宇,宋朝,庙宇,陕西省咸阳市,37.18586594427607,113.44609867503202,6,971,一般,地方特色风格,1523.0829950607217,13.490431360308056,这是一座建于宋朝（公元971年）的庙宇，位于陕西省咸阳市，建筑风格为地方特色风格。建筑面积1523平方米，高13米，目前保存状况一般。
朝阳区西古城墙,唐朝,古城墙,北京市朝阳区,31.595588992742947,119.14149788142497,2,821,较好,传统建筑风格,3577.275606155717,10.449301765364824,这是一座建于唐朝（公元821年）的古城墙，位于北京市朝阳区，建筑风格为传统建筑风格。建筑面积3577平方米，高10米，目前保存状况较好。是第2批重点文物保护单位。
泉州市西民居,宋朝,民居,福建省泉州市,27.367531282389205,107.6407428888031,3,1190,较好,福建土楼风格,1167.6341204003947,6.064696153706275,这是一座建于宋朝（公元1190年）的民居，位于福建省泉州市，建筑风格为福建土楼风格。建筑面积1167平方米，高6米，目前保存状况较好。是第3批重点文物保护单位。
朝阳区中园林,明朝,园林,北京市朝阳区,31.58435843274419,115.16391466890222,1,1448,完好,岭南园林风格,3000.046024250887,16.105080383376084,这是一座建于明朝（公元1448年）的园林，位于北京市朝阳区，建筑风格为岭南园林风格。建筑面积3000平方米，高16米，目前保存状况完好。是第1批重点文物保护单位。
太原市北书院,清朝,书院,山西省太原市,24.59698186026065,118.4328511582396,6,1677,完好,地方特色风格,4051.1058233057747,11.990152445789198,这是一座建于清朝（公元1677年）的书院，位于山西省太原市，建筑风格为地方特色风格。建筑面积4051平方米，高11米，目前保存状况完好。
平遥县北钟楼,宋朝,钟楼,山西省平遥县,35.59604267297246,111.91759959627524,1,973,完好,传统建筑风格,2327.7805148540797,8.52578482225342,这是一座建于宋朝（公元973年）的钟楼，位于山西省平遥县，建筑风格为传统建筑风格。建筑面积2327平方米，高8米，目前保存状况完好。是第1批重点文物保护单位。
平遥县南钟楼,明朝,钟楼,山西省平遥县,32.62105238814443,112.66485284444774,4,1473,较好,地方特色风格,2699.072528431082,11.938250952371195,这是一座建于明朝（公元1473年）的钟楼，位于山西省平遥县，建筑风格为地方特色风格。建筑面积2699平方米，高11米，目前保存状况较好。是第4批重点文物保护单位。
西安市中宫殿,元朝,宫殿,陕西省西安市,39.29048866373884,102.25155209735667,3,1366,较好,宫廷建筑风格,34290.825115539425,18.194962080835683,这是一座建于元朝（公元1366年）的宫殿，位于陕西省西安市，建筑风格为宫廷建筑风格。建筑面积34290平方米，高18米，目前保存状况较好。是第3批重点文物保护单位。
西安市西桥梁,唐朝,桥梁,陕西省西安市,33.97591122858997,100.2376461982271,1,759,完好,传统建筑风格,2886.66137039751,15.429202648295181,这是一座建于唐朝（公元759年）的桥梁，位于陕西省西安市，建筑风格为传统建筑风格。建筑面积2886平方米，高15米，目前保存状况完好。是第1批重点文物保护单位。
苏州市北塔楼,元朝,塔楼,江苏省苏州市,20.232700506448566,104.07441524330383,7,1288,较差,传统建筑风格,1953.2558327453683,17.01084594828413,这是一座建于元朝（公元1288年）的塔楼，位于江苏省苏州市，建筑风格为传统建筑风格。建筑面积1953平方米，高17米，目前保存状况较差。
海淀区中宫殿,明朝,宫殿,北京市海淀区,33.96350201506447,108.25027903983806,5,1540,较好,攒尖顶风格,26302.335318837373,22.304734287369268,这是一座建于明朝（公元1540年）的宫殿，位于北京市海淀区，建筑风格为攒尖顶风格。建筑面积26302平方米，高22米，目前保存状况较好。
平遥县西戏台,元朝,戏台,山西省平遥县,38.18928343671685,102.78915884812034,4,1312,完好,地方特色风格,2470.6755729330357,18.696576243612924,这是一座建于元朝（公元1312年）的戏台，位于山西省平遥县，建筑风格为地方特色风格。建筑面积2470平方米，高18米，目前保存状况完好。是第4批重点文物保护单位。
南京市北城门,元朝,城门,江苏省南京市,38.056760416619944,107.47452558251292,3,1353,较好,传统建筑风格,3622.984547119387,12.175649526574778,这是一座建于元朝（公元1353年）的城门，位于江苏省南京市，建筑风格为传统建筑风格。建筑面积3622平方米，高12米，目前保存状况较好。是第3批重点文物保护单位。
湖州市北寺庙,唐朝,寺庙,浙江省湖州市,29.48454272739194,115.95898247802177,4,865,较好,宋代佛寺风格,40233.30304328152,22.352943469364043,这是一座建于唐朝（公元865年）的寺庙，位于浙江省湖州市，建筑风格为宋代佛寺风格。建筑面积40233平方米，高22米，目前保存状况较好。是第4批重点文物保护单位。
西安市南园林,唐朝,园林,陕西省西安市,30.307111843184195,114.61756088625026,3,789,较好,北方园林风格,1440.6442152813756,10.697211180609411,这是一座建于唐朝（公元789年）的园林，位于陕西省西安市，建筑风格为北方园林风格。建筑面积1440平方米，高10米，目前保存状况较好。是第3批重点文物保护单位。
湖州市南宫殿,元朝,宫殿,浙江省湖州市,34.83576640021271,106.68703892251966,1,1282,较好,攒尖顶风格,27129.36823540583,20.848708501733814,这是一座建于元朝（公元1282年）的宫殿，位于浙江省湖州市，建筑风格为攒尖顶风格。建筑面积27129平方米，高20米，目前保存状况较好。是第1批重点文物保护单位。
平遥县西鼓楼,宋朝,鼓楼,山西省平遥县,34.02372332930014,115.1445916439201,5,1060,一般,传统建筑风格,1215.5967584504306,13.662048611448219,这是一座建于宋朝（公元1060年）的鼓楼，位于山西省平遥县，建筑风格为传统建筑风格。建筑面积1215平方米，高13米，目前保存状况一般。
平遥县北园林,元朝,园林,山西省平遥县,28.785013926299193,117.71515149611972,3,1355,完好,江南园林风格,1593.826306761646,11.076886787480886,这是一座建于元朝（公元1355年）的园林，位于山西省平遥县，建筑风格为江南园林风格。建筑面积1593平方米，高11米，目前保存状况完好。是第3批重点文物保护单位。
平遥县南书院,明朝,书院,山西省平遥县,34.441537970936636,108.4646268409812,7,1546,完好,地方特色风格,1105.3480600893195,8.647940792959574,这是一座建于明朝（公元1546年）的书院，位于山西省平遥县，建筑风格为地方特色风格。建筑面积1105平方米，高8米，目前保存状况完好。
漳州市中钟楼,唐朝,钟楼,福建省漳州市,27.358556949021704,104.8072052069018,1,833,较好,传统建筑风格,554.5075795908513,8.107934303186296,这是一座建于唐朝（公元833年）的钟楼，位于福建省漳州市，建筑风格为传统建筑风格。建筑面积554平方米，高8米，目前保存状况较好。是第1批重点文物保护单位。
西安市北佛塔,明朝,佛塔,陕西省西安市,31.76062622803999,106.31642958935477,5,1574,一般,地方特色风格,564.29824192674,14.561922672050898,这是一座建于明朝（公元1574年）的佛塔，位于陕西省西安市，建筑风格为地方特色风格。建筑面积564平方米，高14米，目前保存状况一般。
福州市东桥梁,唐朝,桥梁,福建省福州市,24.777554931894976,100.97014410200197,3,882,较好,地方特色风格,4490.905153117362,12.236923544839089,这是一座建于唐朝（公元882年）的桥梁，位于福建省福州市，建筑风格为地方特色风格。建筑面积4490平方米，高12米，目前保存状况较好。是第3批重点文物保护单位。
西城区北佛塔,元朝,佛塔,北京市西城区,21.745969018592646,108.52782765167639,1,1283,较好,传统建筑风格,559.8388835081354,8.383440053912675,这是一座建于元朝（公元1283年）的佛塔，位于北京市西城区，建筑风格为传统建筑风格。建筑面积559平方米，高8米，目前保存状况较好。是第1批重点文物保护单位。
咸阳市东园林,宋朝,园林,陕西省咸阳市,30.014415876502174,118.23227368399623,1,1048,较好,岭南园林风格,2181.2582249311326,18.669370299024834,这是一座建于宋朝（公元1048年）的园林，位于陕西省咸阳市，建筑风格为岭南园林风格。建筑面积2181平方米，高18米，目前保存状况较好。是第1批重点文物保护单位。
海淀区东祠堂,清朝,祠堂,北京市海淀区,20.090117315318658,108.89605771914161,7,1649,完好,岭南祠堂风格,1435.7946880533457,6.833644802314097,这是一座建于清朝（公元1649年）的祠堂，位于北京市海淀区，建筑风格为岭南祠堂风格。建筑面积1435平方米，高6米，目前保存状况完好。
漳州市东城门,明朝,城门,福建省漳州市,33.22776113304467,114.78378269148045,5,1595,一般,传统建筑风格,1978.9709396281246,9.183195933291902,这是一座建于明朝（公元1595年）的城门，位于福建省漳州市，建筑风格为传统建筑风格。建筑面积1978平方米，高9米，目前保存状况一般。
绍兴市东官邸,唐朝,官邸,浙江省绍兴市,39.50313494693668,118.42845504749714,3,787,完好,地方特色风格,1683.3161786716246,16.02485450029085,这是一座建于唐朝（公元787年）的官邸，位于浙江省绍兴市，建筑风格为地方特色风格。建筑面积1683平方米，高16米，目前保存状况完好。是第3批重点文物保护单位。
平遥县东会馆,唐朝,会馆,山西省平遥县,32.76902179764843,100.92840162788424,8,699,一般,传统建筑风格,1086.6827620253289,15.702798835436019,这是一座建于唐朝（公元699年）的会馆，位于山西省平遥县，建筑风格为传统建筑风格。建筑面积1086平方米，高15米，目前保存状况一般。
杭州市北塔楼,元朝,塔楼,浙江省杭州市,38.84493449302704,116.78980471385367,8,1336,一般,地方特色风格,3708.5353038544135,15.37143682632582,这是一座建于元朝（公元1336年）的塔楼，位于浙江省杭州市，建筑风格为地方特色风格。建筑面积3708平方米，高15米，目前保存状况一般。
扬州市西钟楼,明朝,钟楼,江苏省扬州市,25.14913390501614,111.59868788464131,8,1425,一般,传统建筑风格,4032.371604495087,12.30354352735884,这是一座建于明朝（公元1425年）的钟楼，位于江苏省扬州市，建筑风格为传统建筑风格。建筑面积4032平方米，高12米，目前保存状况一般。
大同市北园林,宋朝,园林,山西省大同市,39.97931521993242,112.68444603556574,7,1238,一般,岭南园林风格,4328.149535852463,14.116019298052612,这是一座建于宋朝（公元1238年）的园林，位于山西省大同市，建筑风格为岭南园林风格。建筑面积4328平方米，高14米，目前保存状况一般。
扬州市西城门,元朝,城门,江苏省扬州市,29.518899996612475,105.24102146826597,4,1309,完好,传统建筑风格,1431.6641193855417,12.21192376645828,这是一座建于元朝（公元1309年）的城门，位于江苏省扬州市，建筑风格为传统建筑风格。建筑面积1431平方米，高12米，目前保存状况完好。是第4批重点文物保护单位。
杭州市中钟楼,唐朝,钟楼,浙江省杭州市,21.359072985539292,103.77884410070644,5,656,一般,传统建筑风格,4320.153698121861,15.76477411499448,这是一座建于唐朝（公元656年）的钟楼，位于浙江省杭州市，建筑风格为传统建筑风格。建筑面积4320平方米，高15米，目前保存状况一般。
苏州市西佛塔,宋朝,佛塔,江苏省苏州市,35.991792711157935,118.19549636748906,2,1191,完好,地方特色风格,2845.464282899062,11.236350244008705,这是一座建于宋朝（公元1191年）的佛塔，位于江苏省苏州市，建筑风格为地方特色风格。建筑面积2845平方米，高11米，目前保存状况完好。是第2批重点文物保护单位。
镇江市东鼓楼,明朝,鼓楼,江苏省镇江市,25.622436093771903,110.56269207341839,7,1565,一般,传统建筑风格,3366.345391208841,14.287877976880226,这是一座建于明朝（公元1565年）的鼓楼，位于江苏省镇江市，建筑风格为传统建筑风格。建筑面积3366平方米，高14米，目前保存状况一般。
扬州市北城门,宋朝,城门,江苏省扬州市,34.97060670872699,106.50564579441635,4,1072,较好,地方特色风格,2226.193097479003,18.111993841450577,这是一座建于宋朝（公元1072年）的城门，位于江苏省扬州市，建筑风格为地方特色风格。建筑面积2226平方米，高18米，目前保存状况较好。是第4批重点文物保护单位。
朝阳区东庙宇,宋朝,庙宇,北京市朝阳区,21.10339589651582,105.59653875723944,1,983,完好,地方特色风格,721.9028144042785,16.038576020078658,这是一座建于宋朝（公元983年）的庙宇，位于北京市朝阳区，建筑风格为地方特色风格。建筑面积721平方米，高16米，目前保存状况完好。是第1批重点文物保护单位。
福州市西宫殿,明朝,宫殿,福建省福州市,37.751429546202225,102.49635770915962,8,1568,较好,重檐歇山顶风格,44798.572851601784,18.420685211197092,这是一座建于明朝（公元1568年）的宫殿，位于福建省福州市，建筑风格为重檐歇山顶风格。建筑面积44798平方米，高18米，目前保存状况较好。
漳州市东庙宇,唐朝,庙宇,福建省漳州市,31.222330644077875,119.04292006818417,4,654,完好,传统建筑风格,4481.681398781449,18.66895227019055,这是一座建于唐朝（公元654年）的庙宇，位于福建省漳州市，建筑风格为传统建筑风格。建筑面积4481平方米，高18米，目前保存状况完好。是第4批重点文物保护单位。
杭州市中园林,宋朝,园林,浙江省杭州市,35.38335257030461,116.34961176054516,6,1240,一般,江南园林风格,3635.6592561288353,16.15240254264513,这是一座建于宋朝（公元1240年）的园林，位于浙江省杭州市，建筑风格为江南园林风格。建筑面积3635平方米，高16米，目前保存状况一般。
泉州市中戏台,元朝,戏台,福建省泉州市,24.140523163466625,114.82282031443512,1,1283,较好,传统建筑风格,4761.733627294023,9.098918914324347,这是一座建于元朝（公元1283年）的戏台，位于福建省泉州市，建筑风格为传统建筑风格。建筑面积4761平方米，高9米，目前保存状况较好。是第1批重点文物保护单位。
杭州市北官邸,唐朝,官邸,浙江省杭州市,36.71324287113309,116.17949621812747,4,791,较好,传统建筑风格,4751.35809982929,16.51540674710355,这是一座建于唐朝（公元791年）的官邸，位于浙江省杭州市，建筑风格为传统建筑风格。建筑面积4751平方米，高16米，目前保存状况较好。是第4批重点文物保护单位。
厦门市南寺庙,宋朝,寺庙,福建省厦门市,32.62293802363743,109.72793931358487,2,1139,较好,宋代佛寺风格,10597.51441610965,29.178345070632464,这是一座建于宋朝（公元1139年）的寺庙，位于福建省厦门市，建筑风格为宋代佛寺风格。建筑面积10597平方米，高29米，目前保存状况较好。是第2批重点文物保护单位。
延安市中戏台,宋朝,戏台,陕西省延安市,24.63056528628537,104.48768338850063,8,1231,较差,地方特色风格,3054.6645550104045,11.21538362591687,这是一座建于宋朝（公元1231年）的戏台，位于陕西省延安市，建筑风格为地方特色风格。建筑面积3054平方米，高11米，目前保存状况较差。
西城区南佛塔,元朝,佛塔,北京市西城区,38.98659272966163,107.55344944875569,5,1338,一般,传统建筑风格,4937.227723398926,19.636784397424385,这是一座建于元朝（公元1338年）的佛塔，位于北京市西城区，建筑风格为传统建筑风格。建筑面积4937平方米，高19米，目前保存状况一般。
西城区北戏台,清朝,戏台,北京市西城区,30.956644884625135,112.50931443337707,6,1910,较好,传统建筑风格,3440.764154460001,19.82729305647421,这是一座建于清朝（公元1910年）的戏台，位于北京市西城区，建筑风格为传统建筑风格。建筑面积3440平方米，高19米，目前保存状况较好。
苏州市北古城墙,明朝,古城墙,江苏省苏州市,34.464889464163946,104.11660315146634,3,1425,完好,传统建筑风格,4950.049276242985,14.176718604673297,这是一座建于明朝（公元1425年）的古城墙，位于江苏省苏州市，建筑风格为传统建筑风格。建筑面积4950平方米，高14米，目前保存状况完好。是第3批重点文物保护单位。
东城区南塔楼,明朝,塔楼,北京市东城区,25.079019291051665,115.25035392848773,2,1370,较好,传统建筑风格,4579.168161678632,16.605938730070424,这是一座建于明朝（公元1370年）的塔楼，位于北京市东城区，建筑风格为传统建筑风格。建筑面积4579平方米，高16米，目前保存状况较好。是第2批重点文物保护单位。
西城区北钟楼,元朝,钟楼,北京市西城区,37.247635725644564,108.04980743088525,2,1355,较好,地方特色风格,1691.0020999189894,11.832993516194925,这是一座建于元朝（公元1355年）的钟楼，位于北京市西城区，建筑风格为地方特色风格。建筑面积1691平方米，高11米，目前保存状况较好。是第2批重点文物保护单位。
西城区北驿站,明朝,驿站,北京市西城区,21.41100274310581,113.48546783191773,6,1641,完好,地方特色风格,4114.923198372562,12.687137138659761,这是一座建于明朝（公元1641年）的驿站，位于北京市西城区，建筑风格为地方特色风格。建筑面积4114平方米，高12米，目前保存状况完好。
朝阳区东牌坊,明朝,牌坊,北京市朝阳区,36.49737696471642,103.9747720330492,1,1403,完好,传统建筑风格,1618.8144157641148,17.78192502297376,这是一座建于明朝（公元1403年）的牌坊，位于北京市朝阳区，建筑风格为传统建筑风格。建筑面积1618平方米，高17米，目前保存状况完好。是第1批重点文物保护单位。
漳州市中驿站,唐朝,驿站,福建省漳州市,34.104863938459104,109.3803570788706,3,814,完好,传统建筑风格,3598.7151620047503,14.417633064634655,这是一座建于唐朝（公元814年）的驿站，位于福建省漳州市，建筑风格为传统建筑风格。建筑面积3598平方米，高14米，目前保存状况完好。是第3批重点文物保护单位。
泉州市西园林,元朝,园林,福建省泉州市,24.415956052163732,117.16744911185567,2,1337,较好,岭南园林风格,1592.5261424442053,15.601175635153389,这是一座建于元朝（公元1337年）的园林，位于福建省泉州市，建筑风格为岭南园林风格。建筑面积1592平方米，高15米，目前保存状况较好。是第2批重点文物保护单位。
汉中市中园林,清朝,园林,陕西省汉中市,25.246089149091027,119.18590002178466,7,1697,完好,岭南园林风格,642.9285548923181,11.177980881954088,这是一座建于清朝（公元1697年）的园林，位于陕西省汉中市，建筑风格为岭南园林风格。建筑面积642平方米，高11米，目前保存状况完好。
扬州市中园林,元朝,园林,江苏省扬州市,26.74722075804538,105.70908460171002,7,1355,一般,北方园林风格,2542.727035917963,16.30445784071191,这是一座建于元朝（公元1355年）的园林，位于江苏省扬州市，建筑风格为北方园林风格。建筑面积2542平方米，高16米，目前保存状况一般。
宁波市西官邸,清朝,官邸,浙江省宁波市,34.84168881650654,117.61892108920455,8,1666,较好,地方特色风格,2395.4005005285844,8.328333901446417,这是一座建于清朝（公元1666年）的官邸，位于浙江省宁波市，建筑风格为地方特色风格。建筑面积2395平方米，高8米，目前保存状况较好。
杭州市西塔楼,明朝,塔楼,浙江省杭州市,31.00009449743231,112.35069269991327,4,1389,完好,传统建筑风格,3795.869197075056,11.477736497475757,这是一座建于明朝（公元1389年）的塔楼，位于浙江省杭州市，建筑风格为传统建筑风格。建筑面积3795平方米，高11米，目前保存状况完好。是第4批重点文物保护单位。
晋中市中佛塔,明朝,佛塔,山西省晋中市,22.31044962846408,103.04994853428671,7,1423,一般,地方特色风格,4939.191800202748,8.289471881574196,这是一座建于明朝（公元1423年）的佛塔，位于山西省晋中市，建筑风格为地方特色风格。建筑面积4939平方米，高8米，目前保存状况一般。
镇江市北会馆,元朝,会馆,江苏省镇江市,32.11136056708256,102.0255523510898,1,1324,完好,地方特色风格,2266.972738305617,13.854939640683805,这是一座建于元朝（公元1324年）的会馆，位于江苏省镇江市，建筑风格为地方特色风格。建筑面积2266平方米，高13米，目前保存状况完好。是第1批重点文物保护单位。
汉中市东祠堂,元朝,祠堂,陕西省汉中市,34.31848035248192,104.7590009381582,3,1296,较好,徽派建筑风格,315.2441711084164,8.998745204272208,这是一座建于元朝（公元1296年）的祠堂，位于陕西省汉中市，建筑风格为徽派建筑风格。建筑面积315平方米，高8米，目前保存状况较好。是第3批重点文物保护单位。
宁波市南古城墙,唐朝,古城墙,浙江省宁波市,28.702492657332986,111.72790445794182,3,816,完好,传统建筑风格,2247.5339849702623,10.023001610254001,这是一座建于唐朝（公元816年）的古城墙，位于浙江省宁波市，建筑风格为传统建筑风格。建筑面积2247平方米，高10米，目前保存状况完好。是第3批重点文物保护单位。
宁波市南古城墙,元朝,古城墙,浙江省宁波市,38.56591417872788,116.74816958940625,2,1290,完好,传统建筑风格,1597.771105716891,9.4036954684846,这是一座建于元朝（公元1290年）的古城墙，位于浙江省宁波市，建筑风格为传统建筑风格。建筑面积1597平方米，高9米，目前保存状况完好。是第2批重点文物保护单位。
汉中市南民居,唐朝,民居,陕西省汉中市,23.29693137077031,108.96252973162743,2,699,完好,徽派民居风格,1709.8971942544545,11.13602150708526,这是一座建于唐朝（公元699年）的民居，位于陕西省汉中市，建筑风格为徽派民居风格。建筑面积1709平方米，高11米，目前保存状况完好。是第2批重点文物保护单位。
咸阳市西庙宇,元朝,庙宇,陕西省咸阳市,22.681079614988892,108.06710988859027,5,1301,较差,地方特色风格,2173.111081644587,10.356538254069607,这是一座建于元朝（公元1301年）的庙宇，位于陕西省咸阳市，建筑风格为地方特色风格。建筑面积2173平方米，高10米，目前保存状况较差。
咸阳市东塔楼,元朝,塔楼,陕西省咸阳市,28.59072632671429,115.2579744159494,8,1325,一般,传统建筑风格,815.627363622602,14.818642025019525,这是一座建于元朝（公元1325年）的塔楼，位于陕西省咸阳市，建筑风格为传统建筑风格。建筑面积815平方米，高14米，目前保存状况一般。
平遥县北鼓楼,唐朝,鼓楼,山西省平遥县,24.48070685702159,104.95970148824013,1,725,较好,传统建筑风格,3344.886977945949,17.141211269603726,这是一座建于唐朝（公元725年）的鼓楼，位于山西省平遥县，建筑风格为传统建筑风格。建筑面积3344平方米，高17米，目前保存状况较好。是第1批重点文物保护单位。
平遥县北牌坊,明朝,牌坊,山西省平遥县,26.152003547407944,113.09776561668774,3,1400,较好,传统建筑风格,1524.2532877607875,13.538879355190643,这是一座建于明朝（公元1400年）的牌坊，位于山西省平遥县，建筑风格为传统建筑风格。建筑面积1524平方米，高13米，目前保存状况较好。是第3批重点文物保护单位。
平遥县南园林,清朝,园林,山西省平遥县,27.517303994399114,113.50920260403294,6,1701,较好,岭南园林风格,1600.7093405003689,17.28086003470528,这是一座建于清朝（公元1701年）的园林，位于山西省平遥县，建筑风格为岭南园林风格。建筑面积1600平方米，高17米，目前保存状况较好。
南京市南驿站,元朝,驿站,江苏省南京市,27.23241290726364,104.54581867650433,4,1271,较好,地方特色风格,3331.0827032960433,15.368624493340587,这是一座建于元朝（公元1271年）的驿站，位于江苏省南京市，建筑风格为地方特色风格。建筑面积3331平方米，高15米，目前保存状况较好。是第4批重点文物保护单位。
汉中市北会馆,清朝,会馆,陕西省汉中市,37.40695285205305,117.94917228293383,6,1743,完好,地方特色风格,1503.1490241148795,8.991234951147762,这是一座建于清朝（公元1743年）的会馆，位于陕西省汉中市，建筑风格为地方特色风格。建筑面积1503平方米，高8米，目前保存状况完好。
福州市西驿站,清朝,驿站,福建省福州市,21.43344111087106,113.6540957310957,8,1711,完好,地方特色风格,4329.682329335912,9.582213843744732,这是一座建于清朝（公元1711年）的驿站，位于福建省福州市，建筑风格为地方特色风格。建筑面积4329平方米，高9米，目前保存状况完好。
朝阳区西牌坊,清朝,牌坊,北京市朝阳区,29.365146505533787,117.88249719958682,5,1674,完好,传统建筑风格,2100.37548619856,9.409136109581333,这是一座建于清朝（公元1674年）的牌坊，位于北京市朝阳区，建筑风格为传统建筑风格。建筑面积2100平方米，高9米，目前保存状况完好。
咸阳市西牌坊,元朝,牌坊,陕西省咸阳市,33.9377724471964,102.64726647806633,3,1341,完好,地方特色风格,528.0738801617359,10.350300076225926,这是一座建于元朝（公元1341年）的牌坊，位于陕西省咸阳市，建筑风格为地方特色风格。建筑面积528平方米，高10米，目前保存状况完好。是第3批重点文物保护单位。
泉州市中祠堂,清朝,祠堂,福建省泉州市,32.95352877034745,108.10237002497729,8,1710,完好,徽派建筑风格,805.6352271991836,11.621408227989987,这是一座建于清朝（公元1710年）的祠堂，位于福建省泉州市，建筑风格为徽派建筑风格。建筑面积805平方米，高11米，目前保存状况完好。
泉州市中牌坊,明朝,牌坊,福建省泉州市,26.8742729433771,108.90489487665295,2,1381,完好,地方特色风格,2120.558512020294,10.138488709911929,这是一座建于明朝（公元1381年）的牌坊，位于福建省泉州市，建筑风格为地方特色风格。建筑面积2120平方米，高10米，目前保存状况完好。是第2批重点文物保护单位。
东城区东鼓楼,明朝,鼓楼,北京市东城区,27.78641534541536,115.72046984704926,8,1522,较好,地方特色风格,951.1988145584623,8.671193088264932,这是一座建于明朝（公元1522年）的鼓楼，位于北京市东城区，建筑风格为地方特色风格。建筑面积951平方米，高8米，目前保存状况较好。
汉中市中祠堂,唐朝,祠堂,陕西省汉中市,35.74624257619571,108.52147330683609,8,641,一般,江南祠堂风格,1876.2898500777774,6.565797140441774,这是一座建于唐朝（公元641年）的祠堂，位于陕西省汉中市，建筑风格为江南祠堂风格。建筑面积1876平方米，高6米，目前保存状况一般。
西安市西宫殿,元朝,宫殿,陕西省西安市,32.90405600987502,100.67643688034966,2,1366,完好,重檐歇山顶风格,18783.864990584705,21.462123033565586,这是一座建于元朝（公元1366年）的宫殿，位于陕西省西安市，建筑风格为重檐歇山顶风格。建筑面积18783平方米，高21米，目前保存状况完好。是第2批重点文物保护单位。
大同市南古城墙,宋朝,古城墙,山西省大同市,21.93397825560186,104.99993429347359,7,1011,较差,传统建筑风格,1201.5052799795544,14.368939809657117,这是一座建于宋朝（公元1011年）的古城墙，位于山西省大同市，建筑风格为传统建筑风格。建筑面积1201平方米，高14米，目前保存状况较差。
大同市中古城墙,唐朝,古城墙,山西省大同市,36.02642904707593,112.79776756191445,3,732,完好,地方特色风格,4173.34583448594,12.39585712427166,这是一座建于唐朝（公元732年）的古城墙，位于山西省大同市，建筑风格为地方特色风格。建筑面积4173平方米，高12米，目前保存状况完好。是第3批重点文物保护单位。
大同市东牌坊,明朝,牌坊,山西省大同市,28.891262948799127,110.05011855397102,2,1426,完好,传统建筑风格,3671.9605683881036,16.360834689279653,这是一座建于明朝（公元1426年）的牌坊，位于山西省大同市，建筑风格为传统建筑风格。建筑面积3671平方米，高16米，目前保存状况完好。是第2批重点文物保护单位。
镇江市中桥梁,唐朝,桥梁,江苏省镇江市,39.70410612381882,105.75302003209815,1,818,完好,地方特色风格,3443.121891602839,12.79878676639803,这是一座建于唐朝（公元818年）的桥梁，位于江苏省镇江市，建筑风格为地方特色风格。建筑面积3443平方米，高12米，目前保存状况完好。是第1批重点文物保护单位。
厦门市北道观,唐朝,道观,福建省厦门市,37.873596829734396,106.769767055905,7,628,一般,地方特色风格,4459.048574546403,12.52192376046634,这是一座建于唐朝（公元628年）的道观，位于福建省厦门市，建筑风格为地方特色风格。建筑面积4459平方米，高12米，目前保存状况一般。
南京市西佛塔,明朝,佛塔,江苏省南京市,23.12482646430981,104.0086124704824,5,1538,较好,传统建筑风格,2357.478950070333,10.205151716825611,这是一座建于明朝（公元1538年）的佛塔，位于江苏省南京市，建筑风格为传统建筑风格。建筑面积2357平方米，高10米，目前保存状况较好。
汉中市中桥梁,元朝,桥梁,陕西省汉中市,33.98972962138898,103.56356551904975,3,1325,较好,传统建筑风格,2409.836981790444,10.65573742687862,这是一座建于元朝（公元1325年）的桥梁，位于陕西省汉中市，建筑风格为传统建筑风格。建筑面积2409平方米，高10米，目前保存状况较好。是第3批重点文物保护单位。
朝阳区东驿站,元朝,驿站,北京市朝阳区,36.797228022897855,105.32127683034895,1,1293,完好,传统建筑风格,3898.113420281286,17.9536039755533,这是一座建于元朝（公元1293年）的驿站，位于北京市朝阳区，建筑风格为传统建筑风格。建筑面积3898平方米，高17米，目前保存状况完好。是第1批重点文物保护单位。
咸阳市中驿站,宋朝,驿站,陕西省咸阳市,29.066067151385163,100.01652637732595,2,1224,完好,传统建筑风格,1003.7797899440059,19.984231705660747,这是一座建于宋朝（公元1224年）的驿站，位于陕西省咸阳市，建筑风格为传统建筑风格。建筑面积1003平方米，高19米，目前保存状况完好。是第2批重点文物保护单位。
泉州市南庙宇,宋朝,庙宇,福建省泉州市,27.666895908663577,111.2728176042089,8,1019,较差,传统建筑风格,3990.8434725002257,17.77343234608555,这是一座建于宋朝（公元1019年）的庙宇，位于福建省泉州市，建筑风格为传统建筑风格。建筑面积3990平方米，高17米，目前保存状况较差。
晋中市西鼓楼,唐朝,鼓楼,山西省晋中市,32.16117809980039,108.80573895578513,5,845,一般,传统建筑风格,4081.0328582774177,17.995261170186808,这是一座建于唐朝（公元845年）的鼓楼，位于山西省晋中市，建筑风格为传统建筑风格。建筑面积4081平方米，高17米，目前保存状况一般。
宁波市南民居,宋朝,民居,浙江省宁波市,39.64143107978254,113.3174381093259,4,1105,较好,福建土楼风格,732.3020397742001,6.846472126483576,这是一座建于宋朝（公元1105年）的民居，位于浙江省宁波市，建筑风格为福建土楼风格。建筑面积732平方米，高6米，目前保存状况较好。是第4批重点文物保护单位。
扬州市中钟楼,元朝,钟楼,江苏省扬州市,22.018365617825122,112.22067117901494,2,1339,完好,传统建筑风格,1911.2023106966565,10.707362415237132,这是一座建于元朝（公元1339年）的钟楼，位于江苏省扬州市，建筑风格为传统建筑风格。建筑面积1911平方米，高10米，目前保存状况完好。是第2批重点文物保护单位。
苏州市北鼓楼,明朝,鼓楼,江苏省苏州市,23.210567338587833,108.97733735644788,8,1617,较好,传统建筑风格,3538.1357953996944,19.25341007553195,这是一座建于明朝（公元1617年）的鼓楼，位于江苏省苏州市，建筑风格为传统建筑风格。建筑面积3538平方米，高19米，目前保存状况较好。
平遥县中会馆,元朝,会馆,山西省平遥县,24.273215901236014,112.85697486712725,1,1290,完好,地方特色风格,3669.35589466581,14.100904543649786,这是一座建于元朝（公元1290年）的会馆，位于山西省平遥县，建筑风格为地方特色风格。建筑面积3669平方米，高14米，目前保存状况完好。是第1批重点文物保护单位。
苏州市中寺庙,明朝,寺庙,江苏省苏州市,26.587868128526573,100.97399377706522,2,1381,完好,藏传佛教风格,46057.78723139053,17.903692854192055,这是一座建于明朝（公元1381年）的寺庙，位于江苏省苏州市，建筑风格为藏传佛教风格。建筑面积46057平方米，高17米，目前保存状况完好。是第2批重点文物保护单位。
西安市西官邸,元朝,官邸,陕西省西安市,39.92708234187954,108.01455247084124,3,1302,完好,传统建筑风格,515.5385301677554,17.553675246821292,这是一座建于元朝（公元1302年）的官邸，位于陕西省西安市，建筑风格为传统建筑风格。建筑面积515平方米，高17米，目前保存状况完好。是第3批重点文物保护单位。
太原市东庙宇,清朝,庙宇,山西省太原市,28.728599567433044,114.96780503974207,5,1720,较好,传统建筑风格,696.1067349308692,11.181739743321055,这是一座建于清朝（公元1720年）的庙宇，位于山西省太原市，建筑风格为传统建筑风格。建筑面积696平方米，高11米，目前保存状况较好。
汉中市东民居,宋朝,民居,陕西省汉中市,33.58428165262,104.33882630662058,6,1207,一般,北方四合院风格,960.8483982275454,6.905532815775667,这是一座建于宋朝（公元1207年）的民居，位于陕西省汉中市，建筑风格为北方四合院风格。建筑面积960平方米，高6米，目前保存状况一般。
汉中市西道观,清朝,道观,陕西省汉中市,35.89005173067224,103.70669734897518,5,1828,一般,传统建筑风格,4258.22937547451,9.62610411186897,这是一座建于清朝（公元1828年）的道观，位于陕西省汉中市，建筑风格为传统建筑风格。建筑面积4258平方米，高9米，目前保存状况一般。
海淀区中鼓楼,宋朝,鼓楼,北京市海淀区,39.93739010427808,104.82743866144357,2,1274,完好,地方特色风格,2099.484273845914,10.772583924145628,这是一座建于宋朝（公元1274年）的鼓楼，位于北京市海淀区，建筑风格为地方特色风格。建筑面积2099平方米，高10米，目前保存状况完好。是第2批重点文物保护单位。
苏州市南祠堂,明朝,祠堂,江苏省苏州市,38.13865300692896,100.64820726700538,8,1550,完好,岭南祠堂风格,586.876398051939,11.361349105717126,这是一座建于明朝（公元1550年）的祠堂，位于江苏省苏州市，建筑风格为岭南祠堂风格。建筑面积586平方米，高11米，目前保存状况完好。
西安市北钟楼,明朝,钟楼,陕西省西安市,23.829816416900808,101.59062152052266,5,1549,一般,传统建筑风格,1745.1974049348837,17.533108884143218,这是一座建于明朝（公元1549年）的钟楼，位于陕西省西安市，建筑风格为传统建筑风格。建筑面积1745平方米，高17米，目前保存状况一般。
南京市北会馆,明朝,会馆,江苏省南京市,27.00955127856389,114.40560689409878,5,1536,完好,地方特色风格,559.1164783814094,13.353266937522704,这是一座建于明朝（公元1536年）的会馆，位于江苏省南京市，建筑风格为地方特色风格。建筑面积559平方米，高13米，目前保存状况完好。
厦门市南钟楼,元朝,钟楼,福建省厦门市,22.97397241422375,111.59051492013282,3,1299,完好,地方特色风格,1736.615080608697,19.40863477113048,这是一座建于元朝（公元1299年）的钟楼，位于福建省厦门市，建筑风格为地方特色风格。建筑面积1736平方米，高19米，目前保存状况完好。是第3批重点文物保护单位。
泉州市北书院,唐朝,书院,福建省泉州市,30.603611023603026,118.54524620909498,3,891,较好,地方特色风格,3720.3137318297727,15.094525923323388,这是一座建于唐朝（公元891年）的书院，位于福建省泉州市，建筑风格为地方特色风格。建筑面积3720平方米，高15米，目前保存状况较好。是第3批重点文物保护单位。
漳州市西牌坊,元朝,牌坊,福建省漳州市,27.38838640095358,107.04462653897475,6,1338,一般,传统建筑风格,1245.2479087098418,17.520155896793593,这是一座建于元朝（公元1338年）的牌坊，位于福建省漳州市，建筑风格为传统建筑风格。建筑面积1245平方米，高17米，目前保存状况一般。
泉州市南寺庙,唐朝,寺庙,福建省泉州市,37.21195398596913,101.73229015980625,3,778,完好,藏传佛教风格,45534.091707183376,24.458583880979962,这是一座建于唐朝（公元778年）的寺庙，位于福建省泉州市，建筑风格为藏传佛教风格。建筑面积45534平方米，高24米，目前保存状况完好。是第3批重点文物保护单位。
绍兴市东道观,清朝,道观,浙江省绍兴市,24.88769687335531,103.27772058645756,5,1908,较差,传统建筑风格,4173.961452435077,19.25865131807972,这是一座建于清朝（公元1908年）的道观，位于浙江省绍兴市，建筑风格为传统建筑风格。建筑面积4173平方米，高19米，目前保存状况较差。
杭州市北驿站,元朝,驿站,浙江省杭州市,39.219387576735244,113.48034009414074,1,1362,完好,传统建筑风格,3516.9815204399165,15.26263621345587,这是一座建于元朝（公元1362年）的驿站，位于浙江省杭州市，建筑风格为传统建筑风格。建筑面积3516平方米，高15米，目前保存状况完好。是第1批重点文物保护单位。
泉州市南书院,明朝,书院,福建省泉州市,38.779952689856884,109.68971239114043,5,1608,一般,传统建筑风格,2100.690619151667,10.722326730342486,这是一座建于明朝（公元1608年）的书院，位于福建省泉州市，建筑风格为传统建筑风格。建筑面积2100平方米，高10米，目前保存状况一般。
杭州市中宫殿,唐朝,宫殿,浙江省杭州市,20.50150339233817,110.44302117441573,2,863,较好,攒尖顶风格,27574.964407103093,18.712048239842773,这是一座建于唐朝（公元863年）的宫殿，位于浙江省杭州市，建筑风格为攒尖顶风格。建筑面积27574平方米，高18米，目前保存状况较好。是第2批重点文物保护单位。
海淀区东钟楼,宋朝,钟楼,北京市海淀区,23.97564562978991,101.66346096747093,1,969,较好,传统建筑风格,4206.177027775568,18.92714134616183,这是一座建于宋朝（公元969年）的钟楼，位于北京市海淀区，建筑风格为传统建筑风格。建筑面积4206平方米，高18米，目前保存状况较好。是第1批重点文物保护单位。
扬州市中古城墙,唐朝,古城墙,江苏省扬州市,20.821738927269383,110.5782233371077,2,684,完好,传统建筑风格,2989.579468725267,15.617010706004734,这是一座建于唐朝（公元684年）的古城墙，位于江苏省扬州市，建筑风格为传统建筑风格。建筑面积2989平方米，高15米，目前保存状况完好。是第2批重点文物保护单位。
扬州市南戏台,宋朝,戏台,江苏省扬州市,36.68842657613113,115.04254455028646,4,1205,完好,地方特色风格,4052.841377145325,17.291111423488402,这是一座建于宋朝（公元1205年）的戏台，位于江苏省扬州市，建筑风格为地方特色风格。建筑面积4052平方米，高17米，目前保存状况完好。是第4批重点文物保护单位。
厦门市南桥梁,宋朝,桥梁,福建省厦门市,31.3444576926573,103.09165517300451,7,1094,一般,地方特色风格,3628.4373024220668,13.786951323152199,这是一座建于宋朝（公元1094年）的桥梁，位于福建省厦门市，建筑风格为地方特色风格。建筑面积3628平方米，高13米，目前保存状况一般。
厦门市北塔楼,明朝,塔楼,福建省厦门市,29.0411041233909,107.93059098252986,7,1506,较好,地方特色风格,2077.002564949643,11.188654824114543,这是一座建于明朝（公元1506年）的塔楼，位于福建省厦门市，建筑风格为地方特色风格。建筑面积2077平方米，高11米，目前保存状况较好。
平遥县中塔楼,明朝,塔楼,山西省平遥县,22.78937871860679,110.18037760038754,7,1598,完好,地方特色风格,2254.016502277722,16.996893379404906,这是一座建于明朝（公元1598年）的塔楼，位于山西省平遥县，建筑风格为地方特色风格。建筑面积2254平方米，高16米，目前保存状况完好。
汉中市北寺庙,明朝,寺庙,陕西省汉中市,38.612775666847114,111.94893809885933,3,1388,完好,藏传佛教风格,43241.695349875896,24.591727189901988,这是一座建于明朝（公元1388年）的寺庙，位于陕西省汉中市，建筑风格为藏传佛教风格。建筑面积43241平方米，高24米，目前保存状况完好。是第3批重点文物保护单位。
延安市北宫殿,宋朝,宫殿,陕西省延安市,37.30764002011749,118.12243839738824,1,1189,较好,攒尖顶风格,48240.80518358198,26.823573548109863,这是一座建于宋朝（公元1189年）的宫殿，位于陕西省延安市，建筑风格为攒尖顶风格。建筑面积48240平方米，高26米，目前保存状况较好。是第1批重点文物保护单位。
平遥县东钟楼,唐朝,钟楼,山西省平遥县,23.897989717198197,101.24780666084423,1,889,较好,传统建筑风格,2866.444341761921,10.474341720547798,这是一座建于唐朝（公元889年）的钟楼，位于山西省平遥县，建筑风格为传统建筑风格。建筑面积2866平方米，高10米，目前保存状况较好。是第1批重点文物保护单位。
太原市西园林,唐朝,园林,山西省太原市,30.771586510033565,116.68696631371144,4,753,完好,江南园林风格,1192.1638416612252,10.614257353117392,这是一座建于唐朝（公元753年）的园林，位于山西省太原市，建筑风格为江南园林风格。建筑面积1192平方米，高10米，目前保存状况完好。是第4批重点文物保护单位。
南京市东塔楼,明朝,塔楼,江苏省南京市,27.81834772082528,115.00649691468968,6,1577,完好,地方特色风格,3132.5261647070743,13.842016388853446,这是一座建于明朝（公元1577年）的塔楼，位于江苏省南京市，建筑风格为地方特色风格。建筑面积3132平方米，高13米，目前保存状况完好。
东城区西书院,清朝,书院,北京市东城区,29.730797586351574,102.17045160034485,6,1871,较好,传统建筑风格,3375.215637506304,16.231689251729534,这是一座建于清朝（公元1871年）的书院，位于北京市东城区，建筑风格为传统建筑风格。建筑面积3375平方米，高16米，目前保存状况较好。
绍兴市西古城墙,清朝,古城墙,浙江省绍兴市,31.874303119078938,106.19386503104651,7,1709,较好,地方特色风格,2857.8696356087435,19.875190230356836,这是一座建于清朝（公元1709年）的古城墙，位于浙江省绍兴市，建筑风格为地方特色风格。建筑面积2857平方米，高19米，目前保存状况较好。
西安市中祠堂,宋朝,祠堂,陕西省西安市,33.185211281544916,105.40523671650907,7,1106,一般,徽派建筑风格,950.4999925239674,10.05888031335732,这是一座建于宋朝（公元1106年）的祠堂，位于陕西省西安市，建筑风格为徽派建筑风格。建筑面积950平方米，高10米，目前保存状况一般。
扬州市中民居,宋朝,民居,江苏省扬州市,37.584642872509846,119.63255421209959,3,1141,较好,江南水乡民居风格,884.5061738653159,11.642091438545156,这是一座建于宋朝（公元1141年）的民居，位于江苏省扬州市，建筑风格为江南水乡民居风格。建筑面积884平方米，高11米，目前保存状况较好。是第3批重点文物保护单位。
朝阳区东会馆,清朝,会馆,北京市朝阳区,37.15459105571093,103.47945816703006,6,1834,一般,地方特色风格,4744.335648711486,16.012536476374827,这是一座建于清朝（公元1834年）的会馆，位于北京市朝阳区，建筑风格为地方特色风格。建筑面积4744平方米，高16米，目前保存状况一般。
苏州市南钟楼,元朝,钟楼,江苏省苏州市,33.46180672549963,112.17435284750981,7,1313,一般,传统建筑风格,3868.050737489986,12.39735487682282,这是一座建于元朝（公元1313年）的钟楼，位于江苏省苏州市，建筑风格为传统建筑风格。建筑面积3868平方米，高12米，目前保存状况一般。
绍兴市中寺庙,元朝,寺庙,浙江省绍兴市,31.864464759960015,116.0776931656613,4,1334,完好,藏传佛教风格,24782.59414294939,29.881003386713143,这是一座建于元朝（公元1334年）的寺庙，位于浙江省绍兴市，建筑风格为藏传佛教风格。建筑面积24782平方米，高29米，目前保存状况完好。是第4批重点文物保护单位。
南京市中桥梁,清朝,桥梁,江苏省南京市,38.63559787700483,109.27363589124583,8,1885,一般,传统建筑风格,1787.2110779101001,19.42825624486934,这是一座建于清朝（公元1885年）的桥梁，位于江苏省南京市，建筑风格为传统建筑风格。建筑面积1787平方米，高19米，目前保存状况一般。
平遥县中民居,元朝,民居,山西省平遥县,34.44351098920515,111.4862234089735,6,1284,较差,北方四合院风格,342.3786508729298,9.99055519751585,这是一座建于元朝（公元1284年）的民居，位于山西省平遥县，建筑风格为北方四合院风格。建筑面积342平方米，高9米，目前保存状况较差。
朝阳区南宫殿,清朝,宫殿,北京市朝阳区,22.494040029028643,118.93172368905512,5,1858,较好,宫廷建筑风格,49491.64494169351,16.745587009829517,这是一座建于清朝（公元1858年）的宫殿，位于北京市朝阳区，建筑风格为宫廷建筑风格。建筑面积49491平方米，高16米，目前保存状况较好。
汉中市东民居,清朝,民居,陕西省汉中市,30.83840263227264,112.70976246735083,7,1886,较好,北方四合院风格,1378.258990978805,9.402258196636321,这是一座建于清朝（公元1886年）的民居，位于陕西省汉中市，建筑风格为北方四合院风格。建筑面积1378平方米，高9米，目前保存状况较好。
南京市西官邸,明朝,官邸,江苏省南京市,22.054908289713953,112.18644186342127,6,1583,较差,传统建筑风格,772.3810643547702,14.314304893405849,这是一座建于明朝（公元1583年）的官邸，位于江苏省南京市，建筑风格为传统建筑风格。建筑面积772平方米，高14米，目前保存状况较差。
海淀区南鼓楼,清朝,鼓楼,北京市海淀区,24.582182863050463,113.1968905042344,5,1697,较好,传统建筑风格,2918.7692850898375,9.884181795534838,这是一座建于清朝（公元1697年）的鼓楼，位于北京市海淀区，建筑风格为传统建筑风格。建筑面积2918平方米，高9米，目前保存状况较好。
汉中市南驿站,明朝,驿站,陕西省汉中市,30.191191728318376,101.09254715771134,5,1539,一般,传统建筑风格,4308.719555583823,11.987947552991525,这是一座建于明朝（公元1539年）的驿站，位于陕西省汉中市，建筑风格为传统建筑风格。建筑面积4308平方米，高11米，目前保存状况一般。
咸阳市东鼓楼,唐朝,鼓楼,陕西省咸阳市,32.136696678622855,114.19981092992712,2,873,较好,传统建筑风格,4687.410814624001,15.436241002635738,这是一座建于唐朝（公元873年）的鼓楼，位于陕西省咸阳市，建筑风格为传统建筑风格。建筑面积4687平方米，高15米，目前保存状况较好。是第2批重点文物保护单位。
湖州市中园林,元朝,园林,浙江省湖州市,39.23377975820138,118.70466225303163,1,1360,较好,北方园林风格,2836.811179506566,9.262789424807565,这是一座建于元朝（公元1360年）的园林，位于浙江省湖州市，建筑风格为北方园林风格。建筑面积2836平方米，高9米，目前保存状况较好。是第1批重点文物保护单位。
平遥县南牌坊,明朝,牌坊,山西省平遥县,29.227870404687152,114.56103001347094,5,1547,完好,传统建筑风格,1846.93964903808,8.421631265601995,这是一座建于明朝（公元1547年）的牌坊，位于山西省平遥县，建筑风格为传统建筑风格。建筑面积1846平方米，高8米，目前保存状况完好。
东城区中戏台,明朝,戏台,北京市东城区,32.55227863776852,114.21241280563652,8,1547,完好,地方特色风格,848.826578786447,9.050580403976715,这是一座建于明朝（公元1547年）的戏台，位于北京市东城区，建筑风格为地方特色风格。建筑面积848平方米，高9米，目前保存状况完好。
汉中市南寺庙,唐朝,寺庙,陕西省汉中市,26.85471229361025,103.64903188468587,4,896,较好,唐代佛寺风格,15894.93532288782,25.59953217563656,这是一座建于唐朝（公元896年）的寺庙，位于陕西省汉中市，建筑风格为唐代佛寺风格。建筑面积15894平方米，高25米，目前保存状况较好。是第4批重点文物保护单位。
咸阳市南塔楼,元朝,塔楼,陕西省咸阳市,38.449942061648066,105.27275948364141,3,1348,较好,地方特色风格,4400.225251023885,19.618719818231177,这是一座建于元朝（公元1348年）的塔楼，位于陕西省咸阳市，建筑风格为地方特色风格。建筑面积4400平方米，高19米，目前保存状况较好。是第3批重点文物保护单位。
晋中市西城门,明朝,城门,山西省晋中市,27.932274714844997,102.06493879921038,7,1573,一般,传统建筑风格,3644.5600431969456,9.824873909255249,这是一座建于明朝（公元1573年）的城门，位于山西省晋中市，建筑风格为传统建筑风格。建筑面积3644平方米，高9米，目前保存状况一般。
延安市北鼓楼,唐朝,鼓楼,陕西省延安市,28.773722265358103,101.26617432342596,1,638,完好,传统建筑风格,4468.86440301035,15.263538025196024,这是一座建于唐朝（公元638年）的鼓楼，位于陕西省延安市，建筑风格为传统建筑风格。建筑面积4468平方米，高15米，目前保存状况完好。是第1批重点文物保护单位。
平遥县西鼓楼,宋朝,鼓楼,山西省平遥县,29.712440242229977,105.28046061714669,2,1112,完好,传统建筑风格,3113.9018473469864,9.823199978845814,这是一座建于宋朝（公元1112年）的鼓楼，位于山西省平遥县，建筑风格为传统建筑风格。建筑面积3113平方米，高9米，目前保存状况完好。是第2批重点文物保护单位。
东城区南道观,宋朝,道观,北京市东城区,30.887374602437625,102.38322263255571,4,977,较好,传统建筑风格,4700.318462615049,8.923910233815228,这是一座建于宋朝（公元977年）的道观，位于北京市东城区，建筑风格为传统建筑风格。建筑面积4700平方米，高8米，目前保存状况较好。是第4批重点文物保护单位。
漳州市中宫殿,明朝,宫殿,福建省漳州市,25.015842063233315,103.35873259982559,3,1449,较好,重檐歇山顶风格,38299.81172805669,27.249048364054996,这是一座建于明朝（公元1449年）的宫殿，位于福建省漳州市，建筑风格为重檐歇山顶风格。建筑面积38299平方米，高27米，目前保存状况较好。是第3批重点文物保护单位。
漳州市南祠堂,清朝,祠堂,福建省漳州市,32.68055777362294,113.19502879563477,8,1810,完好,徽派建筑风格,1325.373241667985,10.867417717283328,这是一座建于清朝（公元1810年）的祠堂，位于福建省漳州市，建筑风格为徽派建筑风格。建筑面积1325平方米，高10米，目前保存状况完好。
宁波市西官邸,唐朝,官邸,浙江省宁波市,31.68415900757561,110.5560729536121,1,742,完好,地方特色风格,905.1211619392834,8.213488035201095,这是一座建于唐朝（公元742年）的官邸，位于浙江省宁波市，建筑风格为地方特色风格。建筑面积905平方米，高8米，目前保存状况完好。是第1批重点文物保护单位。
大同市北古城墙,元朝,古城墙,山西省大同市,29.729577808748978,101.6074654269843,4,1323,较好,传统建筑风格,1392.9602470656805,8.049871421709408,这是一座建于元朝（公元1323年）的古城墙，位于山西省大同市，建筑风格为传统建筑风格。建筑面积1392平方米，高8米，目前保存状况较好。是第4批重点文物保护单位。
扬州市中官邸,清朝,官邸,江苏省扬州市,28.779047539581946,109.27129082472045,7,1792,一般,传统建筑风格,1991.4333262438668,9.897532448415618,这是一座建于清朝（公元1792年）的官邸，位于江苏省扬州市，建筑风格为传统建筑风格。建筑面积1991平方米，高9米，目前保存状况一般。
湖州市北宫殿,清朝,宫殿,浙江省湖州市,22.48871924127061,101.51377916252693,7,1763,完好,重檐歇山顶风格,23166.012343331917,18.798950367006242,这是一座建于清朝（公元1763年）的宫殿，位于浙江省湖州市，建筑风格为重檐歇山顶风格。建筑面积23166平方米，高18米，目前保存状况完好。
泉州市南牌坊,明朝,牌坊,福建省泉州市,24.59264118160913,109.54552548903723,8,1623,较好,地方特色风格,1172.6262920833478,17.115382202003058,这是一座建于明朝（公元1623年）的牌坊，位于福建省泉州市，建筑风格为地方特色风格。建筑面积1172平方米，高17米，目前保存状况较好。
福州市西会馆,明朝,会馆,福建省福州市,27.063612306242568,109.71996434501686,7,1610,一般,传统建筑风格,4844.064615073358,13.414125960189843,这是一座建于明朝（公元1610年）的会馆，位于福建省福州市，建筑风格为传统建筑风格。建筑面积4844平方米，高13米，目前保存状况一般。
晋中市东鼓楼,宋朝,鼓楼,山西省晋中市,35.49541067047083,102.05278817168957,2,1239,较好,地方特色风格,2309.4828669745893,19.491664609412307,这是一座建于宋朝（公元1239年）的鼓楼，位于山西省晋中市，建筑风格为地方特色风格。建筑面积2309平方米，高19米，目前保存状况较好。是第2批重点文物保护单位。
汉中市北官邸,明朝,官邸,陕西省汉中市,31.36230714610121,116.22885337478945,2,1439,较好,传统建筑风格,1069.0210694367643,8.414805503449392,这是一座建于明朝（公元1439年）的官邸，位于陕西省汉中市，建筑风格为传统建筑风格。建筑面积1069平方米，高8米，目前保存状况较好。是第2批重点文物保护单位。
湖州市北会馆,唐朝,会馆,浙江省湖州市,31.800137888465635,110.0027017287495,2,688,较好,地方特色风格,953.4008780376014,13.954872997127634,这是一座建于唐朝（公元688年）的会馆，位于浙江省湖州市，建筑风格为地方特色风格。建筑面积953平方米，高13米，目前保存状况较好。是第2批重点文物保护单位。
镇江市南道观,元朝,道观,江苏省镇江市,23.603666753580704,107.82231084992398,3,1302,完好,地方特色风格,2348.243842929778,18.0455389045667,这是一座建于元朝（公元1302年）的道观，位于江苏省镇江市，建筑风格为地方特色风格。建筑面积2348平方米，高18米，目前保存状况完好。是第3批重点文物保护单位。
延安市西戏台,元朝,戏台,陕西省延安市,28.27718934691954,119.54140107983724,1,1286,较好,地方特色风格,2626.4369245706043,12.786222212252966,这是一座建于元朝（公元1286年）的戏台，位于陕西省延安市，建筑风格为地方特色风格。建筑面积2626平方米，高12米，目前保存状况较好。是第1批重点文物保护单位。
咸阳市东园林,宋朝,园林,陕西省咸阳市,30.782925703278803,103.03757757662993,1,1006,完好,岭南园林风格,2117.804923434551,18.34697674868176,这是一座建于宋朝（公元1006年）的园林，位于陕西省咸阳市，建筑风格为岭南园林风格。建筑面积2117平方米，高18米，目前保存状况完好。是第1批重点文物保护单位。
泉州市东庙宇,明朝,庙宇,福建省泉州市,30.939285371760114,117.74392933090347,6,1640,较差,地方特色风格,4663.181687164145,16.343608375397388,这是一座建于明朝（公元1640年）的庙宇，位于福建省泉州市，建筑风格为地方特色风格。建筑面积4663平方米，高16米，目前保存状况较差。
苏州市中书院,元朝,书院,江苏省苏州市,32.73585502786667,105.48013286943898,7,1311,较差,地方特色风格,3606.673119924353,18.96605497816413,这是一座建于元朝（公元1311年）的书院，位于江苏省苏州市，建筑风格为地方特色风格。建筑面积3606平方米，高18米，目前保存状况较差。
朝阳区南钟楼,明朝,钟楼,北京市朝阳区,31.232837982359644,104.7642118448411,6,1627,较好,传统建筑风格,3046.193672557196,12.421930454649994,这是一座建于明朝（公元1627年）的钟楼，位于北京市朝阳区，建筑风格为传统建筑风格。建筑面积3046平方米，高12米，目前保存状况较好。
苏州市西戏台,清朝,戏台,江苏省苏州市,33.40443625689357,117.9973695250199,6,1796,完好,传统建筑风格,2396.0958882177047,18.114946774520046,这是一座建于清朝（公元1796年）的戏台，位于江苏省苏州市，建筑风格为传统建筑风格。建筑面积2396平方米，高18米，目前保存状况完好。
平遥县中桥梁,元朝,桥梁,山西省平遥县,25.603613061573864,114.34869357455823,2,1316,完好,传统建筑风格,2882.504734896807,17.536739678048995,这是一座建于元朝（公元1316年）的桥梁，位于山西省平遥县，建筑风格为传统建筑风格。建筑面积2882平方米，高17米，目前保存状况完好。是第2批重点文物保护单位。
湖州市中塔楼,清朝,塔楼,浙江省湖州市,24.45083812615468,110.53227291319436,5,1888,较好,传统建筑风格,1144.2214121088632,8.259833864104879,这是一座建于清朝（公元1888年）的塔楼，位于浙江省湖州市，建筑风格为传统建筑风格。建筑面积1144平方米，高8米，目前保存状况较好。
汉中市中宫殿,元朝,宫殿,陕西省汉中市,28.072935044154484,112.59630293110467,6,1331,一般,攒尖顶风格,16063.5024584589,26.054930003154126,这是一座建于元朝（公元1331年）的宫殿，位于陕西省汉中市，建筑风格为攒尖顶风格。建筑面积16063平方米，高26米，目前保存状况一般。
泉州市南庙宇,清朝,庙宇,福建省泉州市,25.824226848994215,100.02398948453383,7,1730,一般,地方特色风格,3930.352574020644,19.61852433169761,这是一座建于清朝（公元1730年）的庙宇，位于福建省泉州市，建筑风格为地方特色风格。建筑面积3930平方米，高19米，目前保存状况一般。
西安市北寺庙,唐朝,寺庙,陕西省西安市,36.188946638563166,106.83722960936092,3,758,较好,宋代佛寺风格,21888.386528561183,18.08524226986005,这是一座建于唐朝（公元758年）的寺庙，位于陕西省西安市，建筑风格为宋代佛寺风格。建筑面积21888平方米，高18米，目前保存状况较好。是第3批重点文物保护单位。
太原市西民居,唐朝,民居,山西省太原市,39.47600709543501,108.60309793100214,6,836,较差,江南水乡民居风格,1163.5099020476723,11.650008223328506,这是一座建于唐朝（公元836年）的民居，位于山西省太原市，建筑风格为江南水乡民居风格。建筑面积1163平方米，高11米，目前保存状况较差。
咸阳市西寺庙,元朝,寺庙,陕西省咸阳市,29.186350133666195,119.11651163731399,3,1320,完好,唐代佛寺风格,28179.00680333079,25.21417210275613,这是一座建于元朝（公元1320年）的寺庙，位于陕西省咸阳市，建筑风格为唐代佛寺风格。建筑面积28179平方米，高25米，目前保存状况完好。是第3批重点文物保护单位。
漳州市东钟楼,清朝,钟楼,福建省漳州市,23.561200430448668,118.15549567893284,6,1747,完好,地方特色风格,732.3577660972117,9.779302257455555,这是一座建于清朝（公元1747年）的钟楼，位于福建省漳州市，建筑风格为地方特色风格。建筑面积732平方米，高9米，目前保存状况完好。
苏州市东古城墙,清朝,古城墙,江苏省苏州市,31.563990459824716,107.27611604118856,8,1711,完好,传统建筑风格,4409.003545018223,14.20337187500362,这是一座建于清朝（公元1711年）的古城墙，位于江苏省苏州市，建筑风格为传统建筑风格。建筑面积4409平方米，高14米，目前保存状况完好。
苏州市中民居,清朝,民居,江苏省苏州市,32.725302543500405,118.97301122930243,5,1769,较好,江南水乡民居风格,400.893843478298,10.24246610171732,这是一座建于清朝（公元1769年）的民居，位于江苏省苏州市，建筑风格为江南水乡民居风格。建筑面积400平方米，高10米，目前保存状况较好。
西城区中宫殿,元朝,宫殿,北京市西城区,37.82048608338527,119.79252342872263,5,1345,一般,攒尖顶风格,11553.916279041125,19.49767813863532,这是一座建于元朝（公元1345年）的宫殿，位于北京市西城区，建筑风格为攒尖顶风格。建筑面积11553平方米，高19米，目前保存状况一般。
咸阳市中钟楼,明朝,钟楼,陕西省咸阳市,29.74046122599802,103.79112977578588,7,1423,一般,地方特色风格,4741.362573626116,11.806250006370844,这是一座建于明朝（公元1423年）的钟楼，位于陕西省咸阳市，建筑风格为地方特色风格。建筑面积4741平方米，高11米，目前保存状况一般。
厦门市北戏台,宋朝,戏台,福建省厦门市,27.580138753110518,110.26186496521504,4,987,完好,传统建筑风格,4007.682611907617,11.527096172831918,这是一座建于宋朝（公元987年）的戏台，位于福建省厦门市，建筑风格为传统建筑风格。建筑面积4007平方米，高11米，目前保存状况完好。是第4批重点文物保护单位。
泉州市西佛塔,清朝,佛塔,福建省泉州市,38.630255798402615,113.31099893525132,7,1718,较好,地方特色风格,767.9300293656396,15.896334281257026,这是一座建于清朝（公元1718年）的佛塔，位于福建省泉州市，建筑风格为地方特色风格。建筑面积767平方米，高15米，目前保存状况较好。
咸阳市西道观,唐朝,道观,陕西省咸阳市,22.80541801197149,116.87020799629451,2,725,较好,传统建筑风格,1679.6861298189065,19.530645036249943,这是一座建于唐朝（公元725年）的道观，位于陕西省咸阳市，建筑风格为传统建筑风格。建筑面积1679平方米，高19米，目前保存状况较好。是第2批重点文物保护单位。
镇江市西庙宇,宋朝,庙宇,江苏省镇江市,35.774917157552736,101.67557153235686,6,1244,一般,传统建筑风格,4857.150973206135,14.990644947273976,这是一座建于宋朝（公元1244年）的庙宇，位于江苏省镇江市，建筑风格为传统建筑风格。建筑面积4857平方米，高14米，目前保存状况一般。
苏州市南宫殿,明朝,宫殿,江苏省苏州市,30.545089115155278,108.76113337316053,6,1460,较差,重檐歇山顶风格,46969.03998281802,29.185923289532226,这是一座建于明朝（公元1460年）的宫殿，位于江苏省苏州市，建筑风格为重檐歇山顶风格。建筑面积46969平方米，高29米，目前保存状况较差。
湖州市南牌坊,明朝,牌坊,浙江省湖州市,27.30924615123644,113.54666516744882,5,1400,一般,传统建筑风格,1698.3508651308734,9.156705178044692,这是一座建于明朝（公元1400年）的牌坊，位于浙江省湖州市，建筑风格为传统建筑风格。建筑面积1698平方米，高9米，目前保存状况一般。
汉中市西书院,唐朝,书院,陕西省汉中市,31.729636708221182,108.5789125688206,1,795,完好,传统建筑风格,1968.9273264428878,13.698793312328032,这是一座建于唐朝（公元795年）的书院，位于陕西省汉中市，建筑风格为传统建筑风格。建筑面积1968平方米，高13米，目前保存状况完好。是第1批重点文物保护单位。
宁波市中民居,元朝,民居,浙江省宁波市,24.257357413449718,117.8774449842948,4,1325,较好,徽派民居风格,1834.67192642227,8.65710927444574,这是一座建于元朝（公元1325年）的民居，位于浙江省宁波市，建筑风格为徽派民居风格。建筑面积1834平方米，高8米，目前保存状况较好。是第4批重点文物保护单位。
大同市东寺庙,唐朝,寺庙,山西省大同市,20.38793676283012,115.27831861559321,4,821,完好,宋代佛寺风格,7750.439085176373,18.17188322994583,这是一座建于唐朝（公元821年）的寺庙，位于山西省大同市，建筑风格为宋代佛寺风格。建筑面积7750平方米，高18米，目前保存状况完好。是第4批重点文物保护单位。
海淀区南塔楼,明朝,塔楼,北京市海淀区,31.241183091996554,110.18126912698371,5,1480,较差,传统建筑风格,2943.3239646190227,10.829513875261279,这是一座建于明朝（公元1480年）的塔楼，位于北京市海淀区，建筑风格为传统建筑风格。建筑面积2943平方米，高10米，目前保存状况较差。
朝阳区中民居,元朝,民居,北京市朝阳区,28.952536412999702,116.64358178286693,2,1317,完好,徽派民居风格,1963.5592592873293,9.001581969358789,这是一座建于元朝（公元1317年）的民居，位于北京市朝阳区，建筑风格为徽派民居风格。建筑面积1963平方米，高9米，目前保存状况完好。是第2批重点文物保护单位。
平遥县南塔楼,唐朝,塔楼,山西省平遥县,30.8176053822296,114.53123275114818,8,639,一般,传统建筑风格,573.1712974585678,11.198365972255768,这是一座建于唐朝（公元639年）的塔楼，位于山西省平遥县，建筑风格为传统建筑风格。建筑面积573平方米，高11米，目前保存状况一般。
朝阳区东城门,唐朝,城门,北京市朝阳区,22.291342153824168,117.67988969930431,1,795,完好,传统建筑风格,3985.715119267844,9.591448287715332,这是一座建于唐朝（公元795年）的城门，位于北京市朝阳区，建筑风格为传统建筑风格。建筑面积3985平方米，高9米，目前保存状况完好。是第1批重点文物保护单位。
东城区西官邸,清朝,官邸,北京市东城区,33.74976648129124,103.12551139858844,6,1904,一般,地方特色风格,4408.636693809558,14.793493225313995,这是一座建于清朝（公元1904年）的官邸，位于北京市东城区，建筑风格为地方特色风格。建筑面积4408平方米，高14米，目前保存状况一般。
晋中市南城门,唐朝,城门,山西省晋中市,38.358890194362395,104.12768044725755,4,773,完好,传统建筑风格,4587.744499090361,12.57311758545563,这是一座建于唐朝（公元773年）的城门，位于山西省晋中市，建筑风格为传统建筑风格。建筑面积4587平方米，高12米，目前保存状况完好。是第4批重点文物保护单位。
扬州市南民居,元朝,民居,江苏省扬州市,29.680272645619286,117.28023115310937,8,1329,较差,江南水乡民居风格,1404.9732952867355,10.278807428150321,这是一座建于元朝（公元1329年）的民居，位于江苏省扬州市，建筑风格为江南水乡民居风格。建筑面积1404平方米，高10米，目前保存状况较差。
南京市北驿站,清朝,驿站,江苏省南京市,27.47946122776087,109.4569086812136,6,1666,完好,地方特色风格,3274.8456303876987,18.859781847655043,这是一座建于清朝（公元1666年）的驿站，位于江苏省南京市，建筑风格为地方特色风格。建筑面积3274平方米，高18米，目前保存状况完好。
苏州市北宫殿,明朝,宫殿,江苏省苏州市,26.895113939099595,119.76648158682067,7,1448,一般,重檐歇山顶风格,20580.741246115096,27.005649384369935,这是一座建于明朝（公元1448年）的宫殿，位于江苏省苏州市，建筑风格为重檐歇山顶风格。建筑面积20580平方米，高27米，目前保存状况一般。
西安市中会馆,唐朝,会馆,陕西省西安市,34.338383009362076,102.10965554022752,3,797,较好,传统建筑风格,4535.192860233333,14.004594479172805,这是一座建于唐朝（公元797年）的会馆，位于陕西省西安市，建筑风格为传统建筑风格。建筑面积4535平方米，高14米，目前保存状况较好。是第3批重点文物保护单位。
东城区南民居,明朝,民居,北京市东城区,37.19079127484812,116.61995269936708,8,1601,完好,江南水乡民居风格,1234.5871972987952,6.994721185074092,这是一座建于明朝（公元1601年）的民居，位于北京市东城区，建筑风格为江南水乡民居风格。建筑面积1234平方米，高6米，目前保存状况完好。
泉州市西会馆,元朝,会馆,福建省泉州市,31.379644537869588,111.11347350366098,2,1277,较好,地方特色风格,2168.9592350835765,9.035393128579315,这是一座建于元朝（公元1277年）的会馆，位于福建省泉州市，建筑风格为地方特色风格。建筑面积2168平方米，高9米，目前保存状况较好。是第2批重点文物保护单位。
宁波市东塔楼,清朝,塔楼,浙江省宁波市,22.192900462300166,110.1712794130672,5,1787,一般,传统建筑风格,1272.505313071736,12.513149779404657,这是一座建于清朝（公元1787年）的塔楼，位于浙江省宁波市，建筑风格为传统建筑风格。建筑面积1272平方米，高12米，目前保存状况一般。
漳州市东鼓楼,宋朝,鼓楼,福建省漳州市,28.395827766852477,113.12909270908261,3,996,完好,地方特色风格,2075.3571317605565,11.694075835223968,这是一座建于宋朝（公元996年）的鼓楼，位于福建省漳州市，建筑风格为地方特色风格。建筑面积2075平方米，高11米，目前保存状况完好。是第3批重点文物保护单位。
汉中市北书院,宋朝,书院,陕西省汉中市,28.59820419064041,112.96240393455729,3,1129,完好,传统建筑风格,579.0202805379434,11.297543448486262,这是一座建于宋朝（公元1129年）的书院，位于陕西省汉中市，建筑风格为传统建筑风格。建筑面积579平方米，高11米，目前保存状况完好。是第3批重点文物保护单位。
泉州市南桥梁,清朝,桥梁,福建省泉州市,24.488006316176307,117.15584189973983,5,1809,完好,地方特色风格,4219.519624971374,12.511158284687962,这是一座建于清朝（公元1809年）的桥梁，位于福建省泉州市，建筑风格为地方特色风格。建筑面积4219平方米，高12米，目前保存状况完好。
苏州市西桥梁,宋朝,桥梁,江苏省苏州市,20.51319648910627,100.39853705672932,7,1067,一般,地方特色风格,2171.9816498106657,17.13882106449411,这是一座建于宋朝（公元1067年）的桥梁，位于江苏省苏州市，建筑风格为地方特色风格。建筑面积2171平方米，高17米，目前保存状况一般。
延安市中官邸,唐朝,官邸,陕西省延安市,35.72117416835196,105.67294403715051,4,898,完好,地方特色风格,3124.543775764959,11.032105329960434,这是一座建于唐朝（公元898年）的官邸，位于陕西省延安市，建筑风格为地方特色风格。建筑面积3124平方米，高11米，目前保存状况完好。是第4批重点文物保护单位。
平遥县中鼓楼,唐朝,鼓楼,山西省平遥县,24.55723379903242,114.99088175373342,4,698,较好,地方特色风格,1710.2032739651402,9.377983028555425,这是一座建于唐朝（公元698年）的鼓楼，位于山西省平遥县，建筑风格为地方特色风格。建筑面积1710平方米，高9米，目前保存状况较好。是第4批重点文物保护单位。
漳州市北民居,清朝,民居,福建省漳州市,39.84585034507156,113.3969403834474,8,1705,较好,江南水乡民居风格,1883.4417670057824,11.838082038060211,这是一座建于清朝（公元1705年）的民居，位于福建省漳州市，建筑风格为江南水乡民居风格。建筑面积1883平方米，高11米，目前保存状况较好。
朝阳区西祠堂,明朝,祠堂,北京市朝阳区,26.545787654638254,102.12330017636464,4,1417,完好,江南祠堂风格,888.2919206935294,7.939743467223965,这是一座建于明朝（公元1417年）的祠堂，位于北京市朝阳区，建筑风格为江南祠堂风格。建筑面积888平方米，高7米，目前保存状况完好。是第4批重点文物保护单位。
苏州市中桥梁,清朝,桥梁,江苏省苏州市,38.25343557040941,105.50956835937141,8,1700,较好,地方特色风格,2379.1334879724623,17.092021269509033,这是一座建于清朝（公元1700年）的桥梁，位于江苏省苏州市，建筑风格为地方特色风格。建筑面积2379平方米，高17米，目前保存状况较好。
苏州市东寺庙,明朝,寺庙,江苏省苏州市,22.2505526717471,118.51264284797487,8,1628,完好,藏传佛教风格,41671.88527534743,23.914383338767962,这是一座建于明朝（公元1628年）的寺庙，位于江苏省苏州市，建筑风格为藏传佛教风格。建筑面积41671平方米，高23米，目前保存状况完好。
平遥县西祠堂,清朝,祠堂,山西省平遥县,26.601825793857227,118.56480042709265,7,1755,较好,岭南祠堂风格,1614.1142547082598,6.404381437604511,这是一座建于清朝（公元1755年）的祠堂，位于山西省平遥县，建筑风格为岭南祠堂风格。建筑面积1614平方米，高6米，目前保存状况较好。
绍兴市西寺庙,元朝,寺庙,浙江省绍兴市,37.45464308845998,105.24861665761827,7,1367,一般,唐代佛寺风格,25943.956094554218,25.81406109246253,这是一座建于元朝（公元1367年）的寺庙，位于浙江省绍兴市，建筑风格为唐代佛寺风格。建筑面积25943平方米，高25米，目前保存状况一般。
杭州市北牌坊,宋朝,牌坊,浙江省杭州市,32.76466757588764,108.0423422049592,1,1035,较好,地方特色风格,3482.6865346618633,18.62809334290765,这是一座建于宋朝（公元1035年）的牌坊，位于浙江省杭州市，建筑风格为地方特色风格。建筑面积3482平方米，高18米，目前保存状况较好。是第1批重点文物保护单位。
绍兴市南宫殿,清朝,宫殿,浙江省绍兴市,21.987959098333594,109.7258371274082,5,1732,较好,攒尖顶风格,42637.21123202359,20.78961207667127,这是一座建于清朝（公元1732年）的宫殿，位于浙江省绍兴市，建筑风格为攒尖顶风格。建筑面积42637平方米，高20米，目前保存状况较好。
晋中市西驿站,清朝,驿站,山西省晋中市,29.67456167167399,118.52549202491255,8,1741,完好,地方特色风格,4671.221642717639,15.080015605100275,这是一座建于清朝（公元1741年）的驿站，位于山西省晋中市，建筑风格为地方特色风格。建筑面积4671平方米，高15米，目前保存状况完好。
延安市北鼓楼,元朝,鼓楼,陕西省延安市,20.771949287936085,103.8885432811493,7,1339,较差,传统建筑风格,880.9239927136117,14.51433297697248,这是一座建于元朝（公元1339年）的鼓楼，位于陕西省延安市，建筑风格为传统建筑风格。建筑面积880平方米，高14米，目前保存状况较差。
太原市北城门,明朝,城门,山西省太原市,35.58515443597109,108.90926640450077,1,1491,完好,地方特色风格,1435.6538020950375,10.4927950917303,这是一座建于明朝（公元1491年）的城门，位于山西省太原市，建筑风格为地方特色风格。建筑面积1435平方米，高10米，目前保存状况完好。是第1批重点文物保护单位。
东城区东书院,明朝,书院,北京市东城区,24.144715999797874,116.9642168238523,1,1471,完好,传统建筑风格,3008.6221109862445,10.154773949557473,这是一座建于明朝（公元1471年）的书院，位于北京市东城区，建筑风格为传统建筑风格。建筑面积3008平方米，高10米，目前保存状况完好。是第1批重点文物保护单位。
太原市中驿站,元朝,驿站,山西省太原市,33.97565574985567,107.98227030289354,1,1359,完好,传统建筑风格,2362.8833613882257,18.579715314933345,这是一座建于元朝（公元1359年）的驿站，位于山西省太原市，建筑风格为传统建筑风格。建筑面积2362平方米，高18米，目前保存状况完好。是第1批重点文物保护单位。
西城区北钟楼,宋朝,钟楼,北京市西城区,20.93415872133693,119.64193952462801,1,1045,较好,地方特色风格,1531.3789437887797,8.841829521162609,这是一座建于宋朝（公元1045年）的钟楼，位于北京市西城区，建筑风格为地方特色风格。建筑面积1531平方米，高8米，目前保存状况较好。是第1批重点文物保护单位。
汉中市北民居,元朝,民居,陕西省汉中市,34.39593665239937,118.15819849309887,2,1316,较好,徽派民居风格,478.45556254727666,11.362576230502466,这是一座建于元朝（公元1316年）的民居，位于陕西省汉中市，建筑风格为徽派民居风格。建筑面积478平方米，高11米，目前保存状况较好。是第2批重点文物保护单位。
镇江市东书院,元朝,书院,江苏省镇江市,32.75180618542518,101.30024493821296,2,1360,较好,传统建筑风格,1083.7815262597596,8.17294654999915,这是一座建于元朝（公元1360年）的书院，位于江苏省镇江市，建筑风格为传统建筑风格。建筑面积1083平方米，高8米，目前保存状况较好。是第2批重点文物保护单位。
镇江市西驿站,明朝,驿站,江苏省镇江市,20.708198311171376,108.75801812062397,7,1588,较好,传统建筑风格,4528.274589806781,14.092227041831237,这是一座建于明朝（公元1588年）的驿站，位于江苏省镇江市，建筑风格为传统建筑风格。建筑面积4528平方米，高14米，目前保存状况较好。
朝阳区西会馆,唐朝,会馆,北京市朝阳区,30.677465990907294,107.65289832365885,8,844,一般,地方特色风格,2853.7849270691986,9.276063544150954,这是一座建于唐朝（公元844年）的会馆，位于北京市朝阳区，建筑风格为地方特色风格。建筑面积2853平方米，高9米，目前保存状况一般。
漳州市东牌坊,唐朝,牌坊,福建省漳州市,21.674367858078103,119.28533747698654,3,662,完好,地方特色风格,1577.3963908721948,16.207283229551017,这是一座建于唐朝（公元662年）的牌坊，位于福建省漳州市，建筑风格为地方特色风格。建筑面积1577平方米，高16米，目前保存状况完好。是第3批重点文物保护单位。
扬州市中古城墙,清朝,古城墙,江苏省扬州市,27.21751685098981,119.87296276419518,7,1810,完好,地方特色风格,4151.18134348121,16.831545937204858,这是一座建于清朝（公元1810年）的古城墙，位于江苏省扬州市，建筑风格为地方特色风格。建筑面积4151平方米，高16米，目前保存状况完好。
平遥县南塔楼,清朝,塔楼,山西省平遥县,30.982869206500315,112.32427130712232,8,1911,完好,地方特色风格,983.5671619738898,8.787306793587003,这是一座建于清朝（公元1911年）的塔楼，位于山西省平遥县，建筑风格为地方特色风格。建筑面积983平方米，高8米，目前保存状况完好。
南京市中塔楼,宋朝,塔楼,江苏省南京市,27.87312515141641,108.94305263412384,3,1088,完好,地方特色风格,2435.9446960908435,18.000311133988923,这是一座建于宋朝（公元1088年）的塔楼，位于江苏省南京市，建筑风格为地方特色风格。建筑面积2435平方米，高18米，目前保存状况完好。是第3批重点文物保护单位。
漳州市西鼓楼,唐朝,鼓楼,福建省漳州市,34.75763989054908,115.67785829352394,3,755,较好,地方特色风格,1041.9729098020853,15.607121480925292,这是一座建于唐朝（公元755年）的鼓楼，位于福建省漳州市，建筑风格为地方特色风格。建筑面积1041平方米，高15米，目前保存状况较好。是第3批重点文物保护单位。
汉中市东塔楼,清朝,塔楼,陕西省汉中市,36.72216324962428,111.61424915146097,8,1767,完好,传统建筑风格,4781.497087727532,11.436310998902552,这是一座建于清朝（公元1767年）的塔楼，位于陕西省汉中市，建筑风格为传统建筑风格。建筑面积4781平方米，高11米，目前保存状况完好。
朝阳区南道观,元朝,道观,北京市朝阳区,34.65383625977078,107.81511853599287,5,1294,较差,传统建筑风格,538.8867851374508,18.324871214718485,这是一座建于元朝（公元1294年）的道观，位于北京市朝阳区，建筑风格为传统建筑风格。建筑面积538平方米，高18米，目前保存状况较差。
宁波市南城门,元朝,城门,浙江省宁波市,24.396904429246156,117.98856785125086,4,1276,较好,传统建筑风格,1341.692207415464,19.669351881774368,这是一座建于元朝（公元1276年）的城门，位于浙江省宁波市，建筑风格为传统建筑风格。建筑面积1341平方米，高19米，目前保存状况较好。是第4批重点文物保护单位。
厦门市西会馆,明朝,会馆,福建省厦门市,27.355338863046434,116.6732303466652,5,1593,完好,地方特色风格,4491.372717106391,18.06704902288419,这是一座建于明朝（公元1593年）的会馆，位于福建省厦门市，建筑风格为地方特色风格。建筑面积4491平方米，高18米，目前保存状况完好。
泉州市中书院,宋朝,书院,福建省泉州市,25.876031363490974,108.68454436567526,7,1082,一般,地方特色风格,3111.5186721586792,18.31217719628331,这是一座建于宋朝（公元1082年）的书院，位于福建省泉州市，建筑风格为地方特色风格。建筑面积3111平方米，高18米，目前保存状况一般。
晋中市南祠堂,宋朝,祠堂,山西省晋中市,28.113781743733913,104.17575592561847,4,1247,较好,岭南祠堂风格,827.3792827960164,11.291905708240215,这是一座建于宋朝（公元1247年）的祠堂，位于山西省晋中市，建筑风格为岭南祠堂风格。建筑面积827平方米，高11米，目前保存状况较好。是第4批重点文物保护单位。
西安市北古城墙,元朝,古城墙,陕西省西安市,30.7405686555497,105.47757803850891,1,1288,较好,传统建筑风格,1266.8524276876267,14.660266204954434,这是一座建于元朝（公元1288年）的古城墙，位于陕西省西安市，建筑风格为传统建筑风格。建筑面积1266平方米，高14米，目前保存状况较好。是第1批重点文物保护单位。
湖州市中钟楼,清朝,钟楼,浙江省湖州市,24.898717605502167,112.01122010164067,8,1739,较好,地方特色风格,1945.6039297295633,16.93108023212133,这是一座建于清朝（公元1739年）的钟楼，位于浙江省湖州市，建筑风格为地方特色风格。建筑面积1945平方米，高16米，目前保存状况较好。
太原市中戏台,唐朝,戏台,山西省太原市,27.910868439218298,118.24884742132087,2,744,较好,地方特色风格,503.7202390566998,15.513177641129298,这是一座建于唐朝（公元744年）的戏台，位于山西省太原市，建筑风格为地方特色风格。建筑面积503平方米，高15米，目前保存状况较好。是第2批重点文物保护单位。
东城区西钟楼,清朝,钟楼,北京市东城区,25.651745860354822,109.55752407964002,6,1847,完好,传统建筑风格,4762.638644434985,12.755598502061277,这是一座建于清朝（公元1847年）的钟楼，位于北京市东城区，建筑风格为传统建筑风格。建筑面积4762平方米，高12米，目前保存状况完好。
太原市北庙宇,宋朝,庙宇,山西省太原市,30.853063219784264,114.20012167763926,3,981,完好,地方特色风格,1833.6715914415377,8.640895902185886,这是一座建于宋朝（公元981年）的庙宇，位于山西省太原市，建筑风格为地方特色风格。建筑面积1833平方米，高8米，目前保存状况完好。是第3批重点文物保护单位。
泉州市东牌坊,元朝,牌坊,福建省泉州市,35.50801770592683,118.38299317184678,3,1366,较好,传统建筑风格,4856.422456777359,18.12119155761308,这是一座建于元朝（公元1366年）的牌坊，位于福建省泉州市，建筑风格为传统建筑风格。建筑面积4856平方米，高18米，目前保存状况较好。是第3批重点文物保护单位。
汉中市东宫殿,唐朝,宫殿,陕西省汉中市,23.294890369542568,117.8682872576055,4,742,完好,重檐歇山顶风格,34574.822293912206,22.58172128205332,这是一座建于唐朝（公元742年）的宫殿，位于陕西省汉中市，建筑风格为重檐歇山顶风格。建筑面积34574平方米，高22米，目前保存状况完好。是第4批重点文物保护单位。
咸阳市南官邸,清朝,官邸,陕西省咸阳市,33.979926725551465,105.55323009282215,7,1714,一般,传统建筑风格,2049.8395583858064,13.930034113706228,这是一座建于清朝（公元1714年）的官邸，位于陕西省咸阳市，建筑风格为传统建筑风格。建筑面积2049平方米，高13米，目前保存状况一般。
泉州市北祠堂,清朝,祠堂,福建省泉州市,34.43907078961253,112.55114134946676,5,1906,完好,徽派建筑风格,1453.4311431825336,11.633340760661813,这是一座建于清朝（公元1906年）的祠堂，位于福建省泉州市，建筑风格为徽派建筑风格。建筑面积1453平方米，高11米，目前保存状况完好。
大同市南佛塔,唐朝,佛塔,山西省大同市,35.461434333186816,108.91217542994661,8,840,一般,传统建筑风格,916.5845882728045,16.450328572676888,这是一座建于唐朝（公元840年）的佛塔，位于山西省大同市，建筑风格为传统建筑风格。建筑面积916平方米，高16米，目前保存状况一般。
镇江市北戏台,元朝,戏台,江苏省镇江市,34.34530581855997,101.59585088093169,4,1359,完好,传统建筑风格,4625.9332739654,17.115900827433393,这是一座建于元朝（公元1359年）的戏台，位于江苏省镇江市，建筑风格为传统建筑风格。建筑面积4625平方米，高17米，目前保存状况完好。是第4批重点文物保护单位。
厦门市东钟楼,元朝,钟楼,福建省厦门市,27.80330450992794,108.28992999064032,4,1301,完好,传统建筑风格,964.7201769468027,12.107359496893931,这是一座建于元朝（公元1301年）的钟楼，位于福建省厦门市，建筑风格为传统建筑风格。建筑面积964平方米，高12米，目前保存状况完好。是第4批重点文物保护单位。
湖州市东牌坊,明朝,牌坊,浙江省湖州市,22.10768127903674,112.92042312745313,6,1414,一般,地方特色风格,3299.8325363150198,8.745269784842007,这是一座建于明朝（公元1414年）的牌坊，位于浙江省湖州市，建筑风格为地方特色风格。建筑面积3299平方米，高8米，目前保存状况一般。
泉州市中鼓楼,清朝,鼓楼,福建省泉州市,33.11892511008737,114.41419675324626,6,1658,较好,地方特色风格,565.2987173337204,17.83903970196519,这是一座建于清朝（公元1658年）的鼓楼，位于福建省泉州市，建筑风格为地方特色风格。建筑面积565平方米，高17米，目前保存状况较好。
汉中市西道观,元朝,道观,陕西省汉中市,36.70549926417202,115.33596804635502,1,1327,较好,传统建筑风格,1969.7116130129068,19.429386652060828,这是一座建于元朝（公元1327年）的道观，位于陕西省汉中市，建筑风格为传统建筑风格。建筑面积1969平方米，高19米，目前保存状况较好。是第1批重点文物保护单位。
泉州市东民居,清朝,民居,福建省泉州市,25.489932577336454,108.78687756064966,5,1718,较好,北方四合院风格,761.2410530240113,6.10014380135945,这是一座建于清朝（公元1718年）的民居，位于福建省泉州市，建筑风格为北方四合院风格。建筑面积761平方米，高6米，目前保存状况较好。
东城区中牌坊,宋朝,牌坊,北京市东城区,28.054740041085342,108.24574306903838,8,972,较差,传统建筑风格,3438.2914955545552,16.240021409482726,这是一座建于宋朝（公元972年）的牌坊，位于北京市东城区，建筑风格为传统建筑风格。建筑面积3438平方米，高16米，目前保存状况较差。
太原市中钟楼,清朝,钟楼,山西省太原市,34.42200275863425,112.9690318872342,7,1813,较好,传统建筑风格,4254.477459891632,10.967924823918814,这是一座建于清朝（公元1813年）的钟楼，位于山西省太原市，建筑风格为传统建筑风格。建筑面积4254平方米，高10米，目前保存状况较好。
漳州市中塔楼,唐朝,塔楼,福建省漳州市,20.214374571736023,112.33492087489418,3,779,完好,传统建筑风格,4632.282395876089,8.009108433539335,这是一座建于唐朝（公元779年）的塔楼，位于福建省漳州市，建筑风格为传统建筑风格。建筑面积4632平方米，高8米，目前保存状况完好。是第3批重点文物保护单位。
西城区中官邸,唐朝,官邸,北京市西城区,24.4248983808376,115.05116138480788,4,753,较好,传统建筑风格,3392.668650166967,8.261375697309724,这是一座建于唐朝（公元753年）的官邸，位于北京市西城区，建筑风格为传统建筑风格。建筑面积3392平方米，高8米，目前保存状况较好。是第4批重点文物保护单位。
朝阳区中书院,宋朝,书院,北京市朝阳区,28.352595090458422,116.0945416710291,4,1126,较好,地方特色风格,1430.2053541173502,16.238726005531703,这是一座建于宋朝（公元1126年）的书院，位于北京市朝阳区，建筑风格为地方特色风格。建筑面积1430平方米，高16米，目前保存状况较好。是第4批重点文物保护单位。
杭州市南民居,宋朝,民居,浙江省杭州市,38.05449224667122,101.41277786196629,4,1047,完好,徽派民居风格,888.7625348775497,6.49647106066919,这是一座建于宋朝（公元1047年）的民居，位于浙江省杭州市，建筑风格为徽派民居风格。建筑面积888平方米，高6米，目前保存状况完好。是第4批重点文物保护单位。
杭州市东官邸,宋朝,官邸,浙江省杭州市,24.315516536032863,114.01622022785097,6,1122,较差,传统建筑风格,4549.897238318275,15.673199110663418,这是一座建于宋朝（公元1122年）的官邸，位于浙江省杭州市，建筑风格为传统建筑风格。建筑面积4549平方米，高15米，目前保存状况较差。
东城区中官邸,明朝,官邸,北京市东城区,38.12765218736951,101.56170140325305,7,1622,一般,传统建筑风格,2997.0201938983437,12.217800836899466,这是一座建于明朝（公元1622年）的官邸，位于北京市东城区，建筑风格为传统建筑风格。建筑面积2997平方米，高12米，目前保存状况一般。
东城区西戏台,元朝,戏台,北京市东城区,36.82918700509948,106.24660108990678,3,1321,完好,传统建筑风格,3611.840575315085,16.932715868786396,这是一座建于元朝（公元1321年）的戏台，位于北京市东城区，建筑风格为传统建筑风格。建筑面积3611平方米，高16米，目前保存状况完好。是第3批重点文物保护单位。
南京市中塔楼,唐朝,塔楼,江苏省南京市,39.483897425570404,119.48533609607364,1,784,较好,地方特色风格,4066.2674365135763,15.072704916325957,这是一座建于唐朝（公元784年）的塔楼，位于江苏省南京市，建筑风格为地方特色风格。建筑面积4066平方米，高15米，目前保存状况较好。是第1批重点文物保护单位。
延安市南古城墙,明朝,古城墙,陕西省延安市,34.17756727281031,112.78738248121874,5,1603,较好,地方特色风格,1683.2774611055675,17.524937844917787,这是一座建于明朝（公元1603年）的古城墙，位于陕西省延安市，建筑风格为地方特色风格。建筑面积1683平方米，高17米，目前保存状况较好。
平遥县东佛塔,清朝,佛塔,山西省平遥县,20.438209039063974,101.95402308117019,6,1777,较好,传统建筑风格,2468.592434357246,15.889908287643681,这是一座建于清朝（公元1777年）的佛塔，位于山西省平遥县，建筑风格为传统建筑风格。建筑面积2468平方米，高15米，目前保存状况较好。
朝阳区南桥梁,清朝,桥梁,北京市朝阳区,29.74833904457681,105.25787461188371,8,1736,一般,地方特色风格,3738.6465966672404,14.921331557602457,这是一座建于清朝（公元1736年）的桥梁，位于北京市朝阳区，建筑风格为地方特色风格。建筑面积3738平方米，高14米，目前保存状况一般。
延安市南城门,明朝,城门,陕西省延安市,26.601156834493427,117.58097475989835,2,1391,较好,地方特色风格,4231.583384599036,10.64200814269418,这是一座建于明朝（公元1391年）的城门，位于陕西省延安市，建筑风格为地方特色风格。建筑面积4231平方米，高10米，目前保存状况较好。是第2批重点文物保护单位。
南京市西民居,宋朝,民居,江苏省南京市,25.952079049795323,108.67867204333518,1,1191,较好,北方四合院风格,867.3161176992157,11.125008539405789,这是一座建于宋朝（公元1191年）的民居，位于江苏省南京市，建筑风格为北方四合院风格。建筑面积867平方米，高11米，目前保存状况较好。是第1批重点文物保护单位。
福州市中民居,明朝,民居,福建省福州市,23.58746083656861,119.73214520483873,2,1422,较好,北方四合院风格,1254.4718209611622,7.787046692753744,这是一座建于明朝（公元1422年）的民居，位于福建省福州市，建筑风格为北方四合院风格。建筑面积1254平方米，高7米，目前保存状况较好。是第2批重点文物保护单位。
延安市南牌坊,唐朝,牌坊,陕西省延安市,32.52015844417609,106.38693785385055,8,680,一般,地方特色风格,3546.721566067953,17.74272778728444,这是一座建于唐朝（公元680年）的牌坊，位于陕西省延安市，建筑风格为地方特色风格。建筑面积3546平方米，高17米，目前保存状况一般。
厦门市中书院,明朝,书院,福建省厦门市,22.801927388070382,104.36183961771512,3,1422,较好,传统建筑风格,2492.164419795941,16.02399681998886,这是一座建于明朝（公元1422年）的书院，位于福建省厦门市，建筑风格为传统建筑风格。建筑面积2492平方米，高16米，目前保存状况较好。是第3批重点文物保护单位。
延安市西园林,明朝,园林,陕西省延安市,31.352190779885603,108.83587872288658,6,1454,一般,岭南园林风格,1690.3446821317423,18.405773042944162,这是一座建于明朝（公元1454年）的园林，位于陕西省延安市，建筑风格为岭南园林风格。建筑面积1690平方米，高18米，目前保存状况一般。
咸阳市东会馆,宋朝,会馆,陕西省咸阳市,38.08891085331982,117.19789319330279,5,1227,较差,地方特色风格,1575.403566703171,8.441808141574704,这是一座建于宋朝（公元1227年）的会馆，位于陕西省咸阳市，建筑风格为地方特色风格。建筑面积1575平方米，高8米，目前保存状况较差。
东城区中牌坊,清朝,牌坊,北京市东城区,22.34747895345783,118.59359490333487,5,1839,一般,传统建筑风格,2224.0396102866844,12.359923591879522,这是一座建于清朝（公元1839年）的牌坊，位于北京市东城区，建筑风格为传统建筑风格。建筑面积2224平方米，高12米，目前保存状况一般。
朝阳区南会馆,明朝,会馆,北京市朝阳区,30.19092001489665,112.63728697524695,8,1412,一般,传统建筑风格,3748.731742438932,13.178644769854078,这是一座建于明朝（公元1412年）的会馆，位于北京市朝阳区，建筑风格为传统建筑风格。建筑面积3748平方米，高13米，目前保存状况一般。
漳州市西塔楼,宋朝,塔楼,福建省漳州市,20.618274519807468,113.91521124538326,1,1113,完好,地方特色风格,2147.095937408855,11.058377984442084,这是一座建于宋朝（公元1113年）的塔楼，位于福建省漳州市，建筑风格为地方特色风格。建筑面积2147平方米，高11米，目前保存状况完好。是第1批重点文物保护单位。
大同市中祠堂,宋朝,祠堂,山西省大同市,30.241678016121647,109.82954310903692,6,1065,一般,岭南祠堂风格,1108.0315178115234,9.21388063566877,这是一座建于宋朝（公元1065年）的祠堂，位于山西省大同市，建筑风格为岭南祠堂风格。建筑面积1108平方米，高9米，目前保存状况一般。
苏州市北塔楼,清朝,塔楼,江苏省苏州市,29.54628158101289,104.12976555592061,6,1659,较好,传统建筑风格,808.1565451126093,14.783371821670729,这是一座建于清朝（公元1659年）的塔楼，位于江苏省苏州市，建筑风格为传统建筑风格。建筑面积808平方米，高14米，目前保存状况较好。
苏州市西园林,明朝,园林,江苏省苏州市,39.004144449035586,116.42744999513062,7,1529,完好,北方园林风格,4490.641606197579,9.660139086188067,这是一座建于明朝（公元1529年）的园林，位于江苏省苏州市，建筑风格为北方园林风格。建筑面积4490平方米，高9米，目前保存状况完好。
西安市北会馆,唐朝,会馆,陕西省西安市,24.54115502392697,119.39312354456888,8,701,较差,传统建筑风格,1064.7680888000637,10.74220214066279,这是一座建于唐朝（公元701年）的会馆，位于陕西省西安市，建筑风格为传统建筑风格。建筑面积1064平方米，高10米，目前保存状况较差。
平遥县北驿站,唐朝,驿站,山西省平遥县,36.909110234926516,110.89352341776618,6,723,一般,地方特色风格,602.1518345714804,16.79990921414062,这是一座建于唐朝（公元723年）的驿站，位于山西省平遥县，建筑风格为地方特色风格。建筑面积602平方米，高16米，目前保存状况一般。
太原市东民居,宋朝,民居,山西省太原市,27.79449411772716,119.44135885067061,7,1222,一般,福建土楼风格,1737.7544292845118,8.24113649342043,这是一座建于宋朝（公元1222年）的民居，位于山西省太原市，建筑风格为福建土楼风格。建筑面积1737平方米，高8米，目前保存状况一般。
福州市东桥梁,清朝,桥梁,福建省福州市,38.94992183887387,105.8035794309555,8,1878,完好,传统建筑风格,966.2016238782145,16.117837067802608,这是一座建于清朝（公元1878年）的桥梁，位于福建省福州市，建筑风格为传统建筑风格。建筑面积966平方米，高16米，目前保存状况完好。
晋中市中佛塔,宋朝,佛塔,山西省晋中市,26.187260391559338,109.13128948079381,2,1040,较好,传统建筑风格,693.2588644647883,10.548698813722037,这是一座建于宋朝（公元1040年）的佛塔，位于山西省晋中市，建筑风格为传统建筑风格。建筑面积693平方米，高10米，目前保存状况较好。是第2批重点文物保护单位。
扬州市东道观,元朝,道观,江苏省扬州市,28.551869656721898,101.08524119034801,3,1322,完好,传统建筑风格,2909.100366523049,8.502557664664549,这是一座建于元朝（公元1322年）的道观，位于江苏省扬州市，建筑风格为传统建筑风格。建筑面积2909平方米，高8米，目前保存状况完好。是第3批重点文物保护单位。
扬州市中民居,明朝,民居,江苏省扬州市,24.47594752477491,107.93497209897552,2,1496,较好,福建土楼风格,1682.9484888909183,6.481216892690387,这是一座建于明朝（公元1496年）的民居，位于江苏省扬州市，建筑风格为福建土楼风格。建筑面积1682平方米，高6米，目前保存状况较好。是第2批重点文物保护单位。
晋中市南会馆,元朝,会馆,山西省晋中市,33.47756058408316,111.79285802172207,2,1362,较好,传统建筑风格,3788.524763541525,17.162434506577515,这是一座建于元朝（公元1362年）的会馆，位于山西省晋中市，建筑风格为传统建筑风格。建筑面积3788平方米，高17米，目前保存状况较好。是第2批重点文物保护单位。
西城区南城门,元朝,城门,北京市西城区,30.754711077581405,104.51466111168945,8,1335,一般,传统建筑风格,4886.54860221762,17.991511249770213,这是一座建于元朝（公元1335年）的城门，位于北京市西城区，建筑风格为传统建筑风格。建筑面积4886平方米，高17米，目前保存状况一般。
西城区北牌坊,唐朝,牌坊,北京市西城区,37.29315705454251,102.28693821202258,4,622,较好,传统建筑风格,2383.952811221579,15.23891533996156,这是一座建于唐朝（公元622年）的牌坊，位于北京市西城区，建筑风格为传统建筑风格。建筑面积2383平方米，高15米，目前保存状况较好。是第4批重点文物保护单位。
延安市西园林,元朝,园林,陕西省延安市,23.190120426079567,101.37085845024852,6,1364,一般,北方园林风格,2498.3614087131236,13.296097808623237,这是一座建于元朝（公元1364年）的园林，位于陕西省延安市，建筑风格为北方园林风格。建筑面积2498平方米，高13米，目前保存状况一般。
南京市南官邸,明朝,官邸,江苏省南京市,38.46327989791958,101.97245623949622,8,1632,较好,地方特色风格,2412.5941859734576,9.945719889893041,这是一座建于明朝（公元1632年）的官邸，位于江苏省南京市，建筑风格为地方特色风格。建筑面积2412平方米，高9米，目前保存状况较好。
西安市北古城墙,元朝,古城墙,陕西省西安市,32.99379649907761,119.04149123702221,2,1320,完好,地方特色风格,1395.1848781509684,10.890544872193281,这是一座建于元朝（公元1320年）的古城墙，位于陕西省西安市，建筑风格为地方特色风格。建筑面积1395平方米，高10米，目前保存状况完好。是第2批重点文物保护单位。
泉州市东佛塔,元朝,佛塔,福建省泉州市,32.07291429991292,116.22262337204717,2,1364,较好,传统建筑风格,2000.1488355798358,16.907146152290373,这是一座建于元朝（公元1364年）的佛塔，位于福建省泉州市，建筑风格为传统建筑风格。建筑面积2000平方米，高16米，目前保存状况较好。是第2批重点文物保护单位。
泉州市西佛塔,清朝,佛塔,福建省泉州市,22.399011135281725,101.72483953632594,7,1897,较好,地方特色风格,831.4483050548215,10.873795307010054,这是一座建于清朝（公元1897年）的佛塔，位于福建省泉州市，建筑风格为地方特色风格。建筑面积831平方米，高10米，目前保存状况较好。
朝阳区南佛塔,明朝,佛塔,北京市朝阳区,23.348758967674833,119.40136834552128,1,1454,完好,地方特色风格,2369.9670188825985,16.08986050998324,这是一座建于明朝（公元1454年）的佛塔，位于北京市朝阳区，建筑风格为地方特色风格。建筑面积2369平方米，高16米，目前保存状况完好。是第1批重点文物保护单位。
海淀区北驿站,唐朝,驿站,北京市海淀区,27.99000026552427,101.47840021801305,5,793,较差,地方特色风格,1815.9193929572261,11.181112808556591,这是一座建于唐朝（公元793年）的驿站，位于北京市海淀区，建筑风格为地方特色风格。建筑面积1815平方米，高11米，目前保存状况较差。
绍兴市西祠堂,唐朝,祠堂,浙江省绍兴市,21.217170300618005,119.32668695640545,6,654,一般,江南祠堂风格,1405.7913912723627,6.3338420353175815,这是一座建于唐朝（公元654年）的祠堂，位于浙江省绍兴市，建筑风格为江南祠堂风格。建筑面积1405平方米，高6米，目前保存状况一般。
厦门市南民居,元朝,民居,福建省厦门市,26.712147263880738,112.09460112058481,4,1341,完好,江南水乡民居风格,1683.2762999992708,7.65086124852251,这是一座建于元朝（公元1341年）的民居，位于福建省厦门市，建筑风格为江南水乡民居风格。建筑面积1683平方米，高7米，目前保存状况完好。是第4批重点文物保护单位。
晋中市北庙宇,宋朝,庙宇,山西省晋中市,36.8599401881967,117.99892374342653,1,1168,完好,地方特色风格,2256.3884832574204,8.81768978294785,这是一座建于宋朝（公元1168年）的庙宇，位于山西省晋中市，建筑风格为地方特色风格。建筑面积2256平方米，高8米，目前保存状况完好。是第1批重点文物保护单位。
西安市西戏台,明朝,戏台,陕西省西安市,23.46860145310661,108.62724546997066,7,1560,较好,地方特色风格,3548.355966483819,19.993054465762242,这是一座建于明朝（公元1560年）的戏台，位于陕西省西安市，建筑风格为地方特色风格。建筑面积3548平方米，高19米，目前保存状况较好。
西城区中官邸,清朝,官邸,北京市西城区,21.223283378478296,118.69185344717158,7,1901,一般,地方特色风格,4002.4768668115735,10.520777445669491,这是一座建于清朝（公元1901年）的官邸，位于北京市西城区，建筑风格为地方特色风格。建筑面积4002平方米，高10米，目前保存状况一般。
西城区东官邸,元朝,官邸,北京市西城区,31.764033446827305,104.88029438273293,2,1334,完好,地方特色风格,3107.7908601327945,17.597080790506162,这是一座建于元朝（公元1334年）的官邸，位于北京市西城区，建筑风格为地方特色风格。建筑面积3107平方米，高17米，目前保存状况完好。是第2批重点文物保护单位。
宁波市东牌坊,唐朝,牌坊,浙江省宁波市,25.893393150792125,114.2530754454643,5,696,一般,地方特色风格,1525.5157284496759,9.470819576592323,这是一座建于唐朝（公元696年）的牌坊，位于浙江省宁波市，建筑风格为地方特色风格。建筑面积1525平方米，高9米，目前保存状况一般。
镇江市南戏台,宋朝,戏台,江苏省镇江市,33.488738726343534,103.89543673647368,1,1057,较好,传统建筑风格,4569.007999288892,9.24898176035875,这是一座建于宋朝（公元1057年）的戏台，位于江苏省镇江市，建筑风格为传统建筑风格。建筑面积4569平方米，高9米，目前保存状况较好。是第1批重点文物保护单位。
泉州市西官邸,唐朝,官邸,福建省泉州市,31.440388135559775,118.86766879151219,1,883,完好,传统建筑风格,4871.837281117609,8.371716218462542,这是一座建于唐朝（公元883年）的官邸，位于福建省泉州市，建筑风格为传统建筑风格。建筑面积4871平方米，高8米，目前保存状况完好。是第1批重点文物保护单位。
湖州市中桥梁,明朝,桥梁,浙江省湖州市,22.12687426313326,116.36500377308907,5,1621,一般,传统建筑风格,1290.080600595489,17.336892265532832,这是一座建于明朝（公元1621年）的桥梁，位于浙江省湖州市，建筑风格为传统建筑风格。建筑面积1290平方米，高17米，目前保存状况一般。
咸阳市东庙宇,唐朝,庙宇,陕西省咸阳市,38.002049646976744,107.89506049529079,1,719,完好,传统建筑风格,771.1300685469068,19.975489855284998,这是一座建于唐朝（公元719年）的庙宇，位于陕西省咸阳市，建筑风格为传统建筑风格。建筑面积771平方米，高19米，目前保存状况完好。是第1批重点文物保护单位。
绍兴市中古城墙,明朝,古城墙,浙江省绍兴市,38.542800020546906,110.20257885440985,3,1465,完好,传统建筑风格,3137.054781147638,11.150677191137294,这是一座建于明朝（公元1465年）的古城墙，位于浙江省绍兴市，建筑风格为传统建筑风格。建筑面积3137平方米，高11米，目前保存状况完好。是第3批重点文物保护单位。
漳州市东钟楼,明朝,钟楼,福建省漳州市,33.18722133644119,110.29588533881552,4,1473,完好,地方特色风格,1874.9212073036338,18.72920777966533,这是一座建于明朝（公元1473年）的钟楼，位于福建省漳州市，建筑风格为地方特色风格。建筑面积1874平方米，高18米，目前保存状况完好。是第4批重点文物保护单位。
湖州市北园林,元朝,园林,浙江省湖州市,23.18701762213677,101.06501638195363,5,1328,一般,江南园林风格,4421.025995534282,9.950237515022682,这是一座建于元朝（公元1328年）的园林，位于浙江省湖州市，建筑风格为江南园林风格。建筑面积4421平方米，高9米，目前保存状况一般。
大同市东书院,唐朝,书院,山西省大同市,36.671205495621166,116.70734181421071,2,706,完好,传统建筑风格,1261.3066697402385,18.820793735559366,这是一座建于唐朝（公元706年）的书院，位于山西省大同市，建筑风格为传统建筑风格。建筑面积1261平方米，高18米，目前保存状况完好。是第2批重点文物保护单位。
宁波市南桥梁,明朝,桥梁,浙江省宁波市,29.45477863950357,100.0282626865773,8,1566,较好,地方特色风格,956.2932899025395,17.487813226074994,这是一座建于明朝（公元1566年）的桥梁，位于浙江省宁波市，建筑风格为地方特色风格。建筑面积956平方米，高17米，目前保存状况较好。
大同市南书院,元朝,书院,山西省大同市,35.1311693092148,114.42417332444923,1,1334,较好,传统建筑风格,2164.6893997219613,13.536337283732772,这是一座建于元朝（公元1334年）的书院，位于山西省大同市，建筑风格为传统建筑风格。建筑面积2164平方米，高13米，目前保存状况较好。是第1批重点文物保护单位。
湖州市南戏台,元朝,戏台,浙江省湖州市,22.78003420997024,114.60237468104721,1,1314,完好,地方特色风格,4844.946166314948,19.971076437560452,这是一座建于元朝（公元1314年）的戏台，位于浙江省湖州市，建筑风格为地方特色风格。建筑面积4844平方米，高19米，目前保存状况完好。是第1批重点文物保护单位。
朝阳区南驿站,清朝,驿站,北京市朝阳区,23.374438576892253,111.71305089528607,6,1795,较好,传统建筑风格,3240.135607441776,15.83032641473287,这是一座建于清朝（公元1795年）的驿站，位于北京市朝阳区，建筑风格为传统建筑风格。建筑面积3240平方米，高15米，目前保存状况较好。
绍兴市北驿站,明朝,驿站,浙江省绍兴市,34.176324539698435,113.05031989591272,5,1604,较差,传统建筑风格,2123.1705844290127,11.44197070859725,这是一座建于明朝（公元1604年）的驿站，位于浙江省绍兴市，建筑风格为传统建筑风格。建筑面积2123平方米，高11米，目前保存状况较差。
大同市东古城墙,明朝,古城墙,山西省大同市,25.58403598081567,118.0284067173567,6,1571,较好,地方特色风格,790.5673056445344,18.710132817284332,这是一座建于明朝（公元1571年）的古城墙，位于山西省大同市，建筑风格为地方特色风格。建筑面积790平方米，高18米，目前保存状况较好。
扬州市东园林,元朝,园林,江苏省扬州市,32.04384750828336,108.73390941902286,1,1334,完好,岭南园林风格,4183.497237749811,9.30208590362433,这是一座建于元朝（公元1334年）的园林，位于江苏省扬州市，建筑风格为岭南园林风格。建筑面积4183平方米，高9米，目前保存状况完好。是第1批重点文物保护单位。
延安市中驿站,宋朝,驿站,陕西省延安市,30.264776698336757,116.65462722879737,3,1071,较好,地方特色风格,2139.6290726924417,15.04465143583519,这是一座建于宋朝（公元1071年）的驿站，位于陕西省延安市，建筑风格为地方特色风格。建筑面积2139平方米，高15米，目前保存状况较好。是第3批重点文物保护单位。
西安市南书院,元朝,书院,陕西省西安市,20.150314126888524,103.69403537428519,4,1328,完好,地方特色风格,3025.3424741380686,13.551301573678373,这是一座建于元朝（公元1328年）的书院，位于陕西省西安市，建筑风格为地方特色风格。建筑面积3025平方米，高13米，目前保存状况完好。是第4批重点文物保护单位。
漳州市东书院,明朝,书院,福建省漳州市,23.65548769451197,113.82160665767252,8,1414,一般,传统建筑风格,710.6783814634465,9.469996847948215,这是一座建于明朝（公元1414年）的书院，位于福建省漳州市，建筑风格为传统建筑风格。建筑面积710平方米，高9米，目前保存状况一般。
宁波市北驿站,唐朝,驿站,浙江省宁波市,28.972613057634536,110.07165463301872,8,664,一般,地方特色风格,2668.7703013465507,8.979483305572117,这是一座建于唐朝（公元664年）的驿站，位于浙江省宁波市，建筑风格为地方特色风格。建筑面积2668平方米，高8米，目前保存状况一般。
扬州市东道观,唐朝,道观,江苏省扬州市,39.74337352580278,119.68573354837892,4,884,较好,传统建筑风格,2111.1078187256894,12.116665486038881,这是一座建于唐朝（公元884年）的道观，位于江苏省扬州市，建筑风格为传统建筑风格。建筑面积2111平方米，高12米，目前保存状况较好。是第4批重点文物保护单位。
延安市南道观,宋朝,道观,陕西省延安市,29.679895718387325,105.10129440864863,6,1127,一般,传统建筑风格,2206.6901069444893,17.698191202661867,这是一座建于宋朝（公元1127年）的道观，位于陕西省延安市，建筑风格为传统建筑风格。建筑面积2206平方米，高17米，目前保存状况一般。
南京市东牌坊,宋朝,牌坊,江苏省南京市,27.389114152878072,102.05884611513166,4,1173,较好,传统建筑风格,2383.537472569447,15.918436777279295,这是一座建于宋朝（公元1173年）的牌坊，位于江苏省南京市，建筑风格为传统建筑风格。建筑面积2383平方米，高15米，目前保存状况较好。是第4批重点文物保护单位。
泉州市西庙宇,元朝,庙宇,福建省泉州市,25.96967892236563,115.85112149121655,3,1325,完好,传统建筑风格,4536.192282225342,18.711973842970316,这是一座建于元朝（公元1325年）的庙宇，位于福建省泉州市，建筑风格为传统建筑风格。建筑面积4536平方米，高18米，目前保存状况完好。是第3批重点文物保护单位。
朝阳区西园林,清朝,园林,北京市朝阳区,37.758467821870155,101.50069306634947,6,1655,较好,岭南园林风格,2427.9710822097054,13.357850952409297,这是一座建于清朝（公元1655年）的园林，位于北京市朝阳区，建筑风格为岭南园林风格。建筑面积2427平方米，高13米，目前保存状况较好。
西城区中戏台,清朝,戏台,北京市西城区,38.55522290554933,114.25246530023213,6,1652,完好,传统建筑风格,3774.5099721354964,16.110563944636596,这是一座建于清朝（公元1652年）的戏台，位于北京市西城区，建筑风格为传统建筑风格。建筑面积3774平方米，高16米，目前保存状况完好。
厦门市南宫殿,清朝,宫殿,福建省厦门市,39.50155514542492,103.45714748770332,7,1772,完好,攒尖顶风格,21392.2695206789,23.046118245421734,这是一座建于清朝（公元1772年）的宫殿，位于福建省厦门市，建筑风格为攒尖顶风格。建筑面积21392平方米，高23米，目前保存状况完好。
漳州市西城门,元朝,城门,福建省漳州市,35.39315436059833,116.3538711995379,1,1305,完好,传统建筑风格,3683.7474267171824,13.522758239647047,这是一座建于元朝（公元1305年）的城门，位于福建省漳州市，建筑风格为传统建筑风格。建筑面积3683平方米，高13米，目前保存状况完好。是第1批重点文物保护单位。
平遥县西民居,宋朝,民居,山西省平遥县,33.33440600949446,109.47749587533862,2,1126,较好,北方四合院风格,765.8301403472906,8.005489818556907,这是一座建于宋朝（公元1126年）的民居，位于山西省平遥县，建筑风格为北方四合院风格。建筑面积765平方米，高8米，目前保存状况较好。是第2批重点文物保护单位。
福州市东官邸,明朝,官邸,福建省福州市,34.42694265772043,108.17396015683191,5,1640,完好,传统建筑风格,1754.850768419293,9.583398172649611,这是一座建于明朝（公元1640年）的官邸，位于福建省福州市，建筑风格为传统建筑风格。建筑面积1754平方米，高9米，目前保存状况完好。
苏州市南民居,清朝,民居,江苏省苏州市,28.40283931431429,109.59661837606863,7,1848,较好,江南水乡民居风格,1436.2143173037418,6.700417017592721,这是一座建于清朝（公元1848年）的民居，位于江苏省苏州市，建筑风格为江南水乡民居风格。建筑面积1436平方米，高6米，目前保存状况较好。
宁波市西牌坊,明朝,牌坊,浙江省宁波市,27.13263410147323,113.50378099198255,7,1465,一般,地方特色风格,4997.198248060436,11.729826247113252,这是一座建于明朝（公元1465年）的牌坊，位于浙江省宁波市，建筑风格为地方特色风格。建筑面积4997平方米，高11米，目前保存状况一般。
福州市西会馆,唐朝,会馆,福建省福州市,29.495196792862558,111.09311221574382,1,759,完好,传统建筑风格,737.1082636681143,10.726839359658502,这是一座建于唐朝（公元759年）的会馆，位于福建省福州市，建筑风格为传统建筑风格。建筑面积737平方米，高10米，目前保存状况完好。是第1批重点文物保护单位。
东城区南庙宇,唐朝,庙宇,北京市东城区,21.408749219553535,106.65360823585826,5,695,一般,地方特色风格,520.5625840690195,11.437933517909135,这是一座建于唐朝（公元695年）的庙宇，位于北京市东城区，建筑风格为地方特色风格。建筑面积520平方米，高11米，目前保存状况一般。
福州市中民居,明朝,民居,福建省福州市,28.020459725056647,109.40022722732543,8,1557,完好,徽派民居风格,1962.5117437021822,7.113935497057658,这是一座建于明朝（公元1557年）的民居，位于福建省福州市，建筑风格为徽派民居风格。建筑面积1962平方米，高7米，目前保存状况完好。
晋中市北宫殿,宋朝,宫殿,山西省晋中市,35.879730375006886,106.27993251679106,8,1181,较差,宫廷建筑风格,43176.91154387616,21.25446579334176,这是一座建于宋朝（公元1181年）的宫殿，位于山西省晋中市，建筑风格为宫廷建筑风格。建筑面积43176平方米，高21米，目前保存状况较差。
南京市中园林,明朝,园林,江苏省南京市,39.912131092341994,100.97591615314165,6,1586,较好,岭南园林风格,3474.4760525703837,9.867420635212744,这是一座建于明朝（公元1586年）的园林，位于江苏省南京市，建筑风格为岭南园林风格。建筑面积3474平方米，高9米，目前保存状况较好。
厦门市北民居,元朝,民居,福建省厦门市,33.574654710758686,117.78366262297895,1,1357,较好,北方四合院风格,1389.1100403292128,9.40758972307619,这是一座建于元朝（公元1357年）的民居，位于福建省厦门市，建筑风格为北方四合院风格。建筑面积1389平方米，高9米，目前保存状况较好。是第1批重点文物保护单位。
大同市中官邸,唐朝,官邸,山西省大同市,20.254385946111512,112.050648452226,6,759,一般,地方特色风格,2518.5810650673393,14.85802006934934,这是一座建于唐朝（公元759年）的官邸，位于山西省大同市，建筑风格为地方特色风格。建筑面积2518平方米，高14米，目前保存状况一般。
镇江市南庙宇,清朝,庙宇,江苏省镇江市,37.15781664577023,110.89823922162546,8,1906,较好,传统建筑风格,1398.0276038351594,11.891429192043434,这是一座建于清朝（公元1906年）的庙宇，位于江苏省镇江市，建筑风格为传统建筑风格。建筑面积1398平方米，高11米，目前保存状况较好。
湖州市南城门,明朝,城门,浙江省湖州市,28.97747582405156,105.0884792728376,3,1410,完好,传统建筑风格,2311.189635544227,14.002580959194304,这是一座建于明朝（公元1410年）的城门，位于浙江省湖州市，建筑风格为传统建筑风格。建筑面积2311平方米，高14米，目前保存状况完好。是第3批重点文物保护单位。
宁波市中鼓楼,明朝,鼓楼,浙江省宁波市,33.76059792015397,104.76836648703468,5,1593,较好,地方特色风格,4112.476594544105,13.033174990561493,这是一座建于明朝（公元1593年）的鼓楼，位于浙江省宁波市，建筑风格为地方特色风格。建筑面积4112平方米，高13米，目前保存状况较好。
大同市南牌坊,宋朝,牌坊,山西省大同市,30.61598406903584,111.74229682320149,1,1014,完好,地方特色风格,3417.3357393338906,11.016253247606837,这是一座建于宋朝（公元1014年）的牌坊，位于山西省大同市，建筑风格为地方特色风格。建筑面积3417平方米，高11米，目前保存状况完好。是第1批重点文物保护单位。
东城区东牌坊,唐朝,牌坊,北京市东城区,20.109004243501158,109.07753973872722,1,697,较好,传统建筑风格,2624.6203477011472,8.185501672788478,这是一座建于唐朝（公元697年）的牌坊，位于北京市东城区，建筑风格为传统建筑风格。建筑面积2624平方米，高8米，目前保存状况较好。是第1批重点文物保护单位。
宁波市中戏台,唐朝,戏台,浙江省宁波市,33.4198008866169,103.92765282839635,7,834,较差,传统建筑风格,821.6084687835071,18.537228014194397,这是一座建于唐朝（公元834年）的戏台，位于浙江省宁波市，建筑风格为传统建筑风格。建筑面积821平方米，高18米，目前保存状况较差。
厦门市西寺庙,清朝,寺庙,福建省厦门市,32.5359442979819,115.57825782439974,7,1736,完好,宋代佛寺风格,9109.672260292278,29.87247126289269,这是一座建于清朝（公元1736年）的寺庙，位于福建省厦门市，建筑风格为宋代佛寺风格。建筑面积9109平方米，高29米，目前保存状况完好。
海淀区东塔楼,清朝,塔楼,北京市海淀区,25.40203013383492,106.01790068036459,5,1770,较好,地方特色风格,3127.704636983971,16.90706763081036,这是一座建于清朝（公元1770年）的塔楼，位于北京市海淀区，建筑风格为地方特色风格。建筑面积3127平方米，高16米，目前保存状况较好。
汉中市南道观,宋朝,道观,陕西省汉中市,32.076602152310805,114.7038316734482,2,1018,较好,传统建筑风格,2521.5084816130134,10.853387009999327,这是一座建于宋朝（公元1018年）的道观，位于陕西省汉中市，建筑风格为传统建筑风格。建筑面积2521平方米，高10米，目前保存状况较好。是第2批重点文物保护单位。
大同市东园林,唐朝,园林,山西省大同市,26.18640683024087,109.60440757500577,4,792,完好,北方园林风格,4133.170437778051,12.87568442899078,这是一座建于唐朝（公元792年）的园林，位于山西省大同市，建筑风格为北方园林风格。建筑面积4133平方米，高12米，目前保存状况完好。是第4批重点文物保护单位。
绍兴市东驿站,元朝,驿站,浙江省绍兴市,39.65406060501826,115.5678415655243,4,1317,较好,传统建筑风格,2386.603822407671,16.370201866487758,这是一座建于元朝（公元1317年）的驿站，位于浙江省绍兴市，建筑风格为传统建筑风格。建筑面积2386平方米，高16米，目前保存状况较好。是第4批重点文物保护单位。
西安市西宫殿,唐朝,宫殿,陕西省西安市,37.53475891284354,101.88639901055369,7,720,较差,攒尖顶风格,47984.32779298296,19.711001640605595,这是一座建于唐朝（公元720年）的宫殿，位于陕西省西安市，建筑风格为攒尖顶风格。建筑面积47984平方米，高19米，目前保存状况较差。
镇江市南官邸,清朝,官邸,江苏省镇江市,25.21658893320824,103.69169088087259,7,1815,完好,传统建筑风格,1594.63801502253,11.956085986435513,这是一座建于清朝（公元1815年）的官邸，位于江苏省镇江市，建筑风格为传统建筑风格。建筑面积1594平方米，高11米，目前保存状况完好。
太原市西鼓楼,元朝,鼓楼,山西省太原市,24.867393357661204,107.15615611403128,7,1312,较差,地方特色风格,1944.4531277281549,17.368986760626456,这是一座建于元朝（公元1312年）的鼓楼，位于山西省太原市，建筑风格为地方特色风格。建筑面积1944平方米，高17米，目前保存状况较差。
南京市中鼓楼,清朝,鼓楼,江苏省南京市,21.10089988442033,102.72521858050911,8,1748,较好,地方特色风格,2912.3572874325273,19.57030980606971,这是一座建于清朝（公元1748年）的鼓楼，位于江苏省南京市，建筑风格为地方特色风格。建筑面积2912平方米，高19米，目前保存状况较好。
咸阳市中戏台,宋朝,戏台,陕西省咸阳市,23.63174237286179,119.19043046770226,1,1186,较好,传统建筑风格,2990.878031518622,14.800414013770416,这是一座建于宋朝（公元1186年）的戏台，位于陕西省咸阳市，建筑风格为传统建筑风格。建筑面积2990平方米，高14米，目前保存状况较好。是第1批重点文物保护单位。
太原市中佛塔,清朝,佛塔,山西省太原市,37.98735412597887,116.89720896792316,8,1873,较差,传统建筑风格,2878.822621679978,14.683989319676652,这是一座建于清朝（公元1873年）的佛塔，位于山西省太原市，建筑风格为传统建筑风格。建筑面积2878平方米，高14米，目前保存状况较差。
苏州市东牌坊,宋朝,牌坊,江苏省苏州市,25.569276487336957,119.84709934411413,5,1002,一般,传统建筑风格,4665.90991052999,12.202252500031628,这是一座建于宋朝（公元1002年）的牌坊，位于江苏省苏州市，建筑风格为传统建筑风格。建筑面积4665平方米，高12米，目前保存状况一般。
晋中市中城门,明朝,城门,山西省晋中市,22.827467178377677,104.66701589742222,5,1583,较好,地方特色风格,2223.1302928017813,16.02319596970187,这是一座建于明朝（公元1583年）的城门，位于山西省晋中市，建筑风格为地方特色风格。建筑面积2223平方米，高16米，目前保存状况较好。
漳州市北古城墙,宋朝,古城墙,福建省漳州市,21.150202751928926,109.30396422437039,7,1024,一般,传统建筑风格,1155.009088784855,16.2708576510738,这是一座建于宋朝（公元1024年）的古城墙，位于福建省漳州市，建筑风格为传统建筑风格。建筑面积1155平方米，高16米，目前保存状况一般。
朝阳区东道观,元朝,道观,北京市朝阳区,29.907299082627596,117.17017294515597,1,1299,较好,地方特色风格,644.8020758880464,11.572950152718468,这是一座建于元朝（公元1299年）的道观，位于北京市朝阳区，建筑风格为地方特色风格。建筑面积644平方米，高11米，目前保存状况较好。是第1批重点文物保护单位。
西安市西桥梁,唐朝,桥梁,陕西省西安市,29.67340571838137,103.13921292841479,2,856,完好,传统建筑风格,2011.3113450648777,15.106838619669519,这是一座建于唐朝（公元856年）的桥梁，位于陕西省西安市，建筑风格为传统建筑风格。建筑面积2011平方米，高15米，目前保存状况完好。是第2批重点文物保护单位。
湖州市东会馆,唐朝,会馆,浙江省湖州市,30.793648959253503,110.49347204359397,8,690,一般,传统建筑风格,3468.8015179823087,17.241548198672774,这是一座建于唐朝（公元690年）的会馆，位于浙江省湖州市，建筑风格为传统建筑风格。建筑面积3468平方米，高17米，目前保存状况一般。
福州市北钟楼,元朝,钟楼,福建省福州市,36.87495978362509,119.85963546961395,1,1318,较好,地方特色风格,4493.397314035008,19.519251798700694,这是一座建于元朝（公元1318年）的钟楼，位于福建省福州市，建筑风格为地方特色风格。建筑面积4493平方米，高19米，目前保存状况较好。是第1批重点文物保护单位。
晋中市南民居,清朝,民居,山西省晋中市,30.96547505835826,107.12932896948782,6,1724,完好,北方四合院风格,1852.2639300705798,6.886196828861998,这是一座建于清朝（公元1724年）的民居，位于山西省晋中市，建筑风格为北方四合院风格。建筑面积1852平方米，高6米，目前保存状况完好。
南京市西书院,唐朝,书院,江苏省南京市,27.94106882235391,104.18074392261556,4,881,较好,传统建筑风格,1814.0244161381395,8.79976308097473,这是一座建于唐朝（公元881年）的书院，位于江苏省南京市，建筑风格为传统建筑风格。建筑面积1814平方米，高8米，目前保存状况较好。是第4批重点文物保护单位。
福州市东书院,宋朝,书院,福建省福州市,35.63738770189096,117.7111373162153,5,1112,一般,传统建筑风格,4234.799196166308,12.316047984531423,这是一座建于宋朝（公元1112年）的书院，位于福建省福州市，建筑风格为传统建筑风格。建筑面积4234平方米，高12米，目前保存状况一般。
南京市北城门,元朝,城门,江苏省南京市,39.603718757138104,111.85008006876194,1,1309,较好,传统建筑风格,1093.189993759586,19.711016587276525,这是一座建于元朝（公元1309年）的城门，位于江苏省南京市，建筑风格为传统建筑风格。建筑面积1093平方米，高19米，目前保存状况较好。是第1批重点文物保护单位。
大同市西桥梁,明朝,桥梁,山西省大同市,25.305664235849775,106.92079058919751,5,1482,一般,地方特色风格,819.492965039206,19.013001732050505,这是一座建于明朝（公元1482年）的桥梁，位于山西省大同市，建筑风格为地方特色风格。建筑面积819平方米，高19米，目前保存状况一般。
西城区南书院,宋朝,书院,北京市西城区,31.804976295139536,100.44035072582167,7,1026,一般,地方特色风格,2384.0604215375506,17.324731049698254,这是一座建于宋朝（公元1026年）的书院，位于北京市西城区，建筑风格为地方特色风格。建筑面积2384平方米，高17米，目前保存状况一般。
镇江市西桥梁,元朝,桥梁,江苏省镇江市,28.147041544965308,113.4896063530909,1,1322,完好,地方特色风格,2406.6121275494525,8.193520252187215,这是一座建于元朝（公元1322年）的桥梁，位于江苏省镇江市，建筑风格为地方特色风格。建筑面积2406平方米，高8米，目前保存状况完好。是第1批重点文物保护单位。
杭州市东戏台,唐朝,戏台,浙江省杭州市,39.6236465740615,107.49907740569724,4,857,较好,地方特色风格,681.6005264636034,15.263021178628163,这是一座建于唐朝（公元857年）的戏台，位于浙江省杭州市，建筑风格为地方特色风格。建筑面积681平方米，高15米，目前保存状况较好。是第4批重点文物保护单位。
漳州市中园林,明朝,园林,福建省漳州市,31.304334353233195,115.12740207545195,6,1594,完好,江南园林风格,564.4286257118412,17.369487666437127,这是一座建于明朝（公元1594年）的园林，位于福建省漳州市，建筑风格为江南园林风格。建筑面积564平方米，高17米，目前保存状况完好。
海淀区南书院,唐朝,书院,北京市海淀区,22.74833286468333,104.83848244241963,2,842,较好,传统建筑风格,2459.3907712926857,8.612857380618047,这是一座建于唐朝（公元842年）的书院，位于北京市海淀区，建筑风格为传统建筑风格。建筑面积2459平方米，高8米，目前保存状况较好。是第2批重点文物保护单位。
厦门市北钟楼,明朝,钟楼,福建省厦门市,32.801331540446796,108.45608087553944,5,1592,较好,传统建筑风格,3692.5857614567426,17.482728237891504,这是一座建于明朝（公元1592年）的钟楼，位于福建省厦门市，建筑风格为传统建筑风格。建筑面积3692平方米，高17米，目前保存状况较好。
泉州市南民居,唐朝,民居,福建省泉州市,27.38212285923659,116.97314128824391,1,638,完好,徽派民居风格,445.5110305951361,8.701603044070449,这是一座建于唐朝（公元638年）的民居，位于福建省泉州市，建筑风格为徽派民居风格。建筑面积445平方米，高8米，目前保存状况完好。是第1批重点文物保护单位。
漳州市西戏台,明朝,戏台,福建省漳州市,24.38403708641276,119.00737210589989,6,1625,完好,传统建筑风格,2210.4915644694047,19.125309016145874,这是一座建于明朝（公元1625年）的戏台，位于福建省漳州市，建筑风格为传统建筑风格。建筑面积2210平方米，高19米，目前保存状况完好。
扬州市南桥梁,宋朝,桥梁,江苏省扬州市,35.76058687031754,117.17636245633139,2,1124,完好,地方特色风格,2384.0721549520213,12.513537094168521,这是一座建于宋朝（公元1124年）的桥梁，位于江苏省扬州市，建筑风格为地方特色风格。建筑面积2384平方米，高12米，目前保存状况完好。是第2批重点文物保护单位。
汉中市中寺庙,清朝,寺庙,陕西省汉中市,22.34485472750245,103.62470387985634,7,1777,完好,藏传佛教风格,14150.450831817385,24.73802351819008,这是一座建于清朝（公元1777年）的寺庙，位于陕西省汉中市，建筑风格为藏传佛教风格。建筑面积14150平方米，高24米，目前保存状况完好。
西城区中宫殿,清朝,宫殿,北京市西城区,27.305263174339522,103.54927624502535,7,1686,较好,攒尖顶风格,25300.063243977507,15.075848669713105,这是一座建于清朝（公元1686年）的宫殿，位于北京市西城区，建筑风格为攒尖顶风格。建筑面积25300平方米，高15米，目前保存状况较好。
平遥县西庙宇,元朝,庙宇,山西省平遥县,36.84054258856646,107.79345006572305,2,1295,完好,传统建筑风格,1727.806947102406,16.01457249896058,这是一座建于元朝（公元1295年）的庙宇，位于山西省平遥县，建筑风格为传统建筑风格。建筑面积1727平方米，高16米，目前保存状况完好。是第2批重点文物保护单位。
西城区北庙宇,元朝,庙宇,北京市西城区,31.92505039752539,108.32634070529944,4,1344,完好,传统建筑风格,1553.952926544937,17.686289736927456,这是一座建于元朝（公元1344年）的庙宇，位于北京市西城区，建筑风格为传统建筑风格。建筑面积1553平方米，高17米，目前保存状况完好。是第4批重点文物保护单位。
湖州市西桥梁,宋朝,桥梁,浙江省湖州市,37.30671254290303,106.75292379752257,1,975,较好,地方特色风格,3089.9832248751704,14.512871772109023,这是一座建于宋朝（公元975年）的桥梁，位于浙江省湖州市，建筑风格为地方特色风格。建筑面积3089平方米，高14米，目前保存状况较好。是第1批重点文物保护单位。
咸阳市南城门,宋朝,城门,陕西省咸阳市,24.517478580030463,105.00813604038812,8,1123,较差,传统建筑风格,3872.706987260263,15.68365588373012,这是一座建于宋朝（公元1123年）的城门，位于陕西省咸阳市，建筑风格为传统建筑风格。建筑面积3872平方米，高15米，目前保存状况较差。
漳州市东钟楼,宋朝,钟楼,福建省漳州市,39.83189845239268,106.88919389019027,3,983,较好,地方特色风格,1282.986892990209,17.698326009992286,这是一座建于宋朝（公元983年）的钟楼，位于福建省漳州市，建筑风格为地方特色风格。建筑面积1282平方米，高17米，目前保存状况较好。是第3批重点文物保护单位。
湖州市中牌坊,宋朝,牌坊,浙江省湖州市,31.35979335988025,109.00802611240486,3,1129,较好,传统建筑风格,1317.0672272249205,18.951941505348806,这是一座建于宋朝（公元1129年）的牌坊，位于浙江省湖州市，建筑风格为传统建筑风格。建筑面积1317平方米，高18米，目前保存状况较好。是第3批重点文物保护单位。
绍兴市中城门,元朝,城门,浙江省绍兴市,34.97031805237437,103.72373538120536,7,1284,一般,传统建筑风格,2720.3635959002804,9.44330355449323,这是一座建于元朝（公元1284年）的城门，位于浙江省绍兴市，建筑风格为传统建筑风格。建筑面积2720平方米，高9米，目前保存状况一般。
南京市东鼓楼,宋朝,鼓楼,江苏省南京市,39.89989841692284,100.21807381481564,8,1104,较差,传统建筑风格,1002.165022839784,18.85953274923275,这是一座建于宋朝（公元1104年）的鼓楼，位于江苏省南京市，建筑风格为传统建筑风格。建筑面积1002平方米，高18米，目前保存状况较差。
太原市北会馆,唐朝,会馆,山西省太原市,26.707500777569464,111.83107045325286,2,695,较好,地方特色风格,3032.5489746575927,19.457192536114277,这是一座建于唐朝（公元695年）的会馆，位于山西省太原市，建筑风格为地方特色风格。建筑面积3032平方米，高19米，目前保存状况较好。是第2批重点文物保护单位。
海淀区东书院,元朝,书院,北京市海淀区,38.49156321081187,104.62485677319486,1,1278,较好,传统建筑风格,4024.003886288017,13.212587379567708,这是一座建于元朝（公元1278年）的书院，位于北京市海淀区，建筑风格为传统建筑风格。建筑面积4024平方米，高13米，目前保存状况较好。是第1批重点文物保护单位。
海淀区东佛塔,清朝,佛塔,北京市海淀区,35.41527932549894,114.77720249014453,5,1835,较好,地方特色风格,4202.156843477045,10.427110727222772,这是一座建于清朝（公元1835年）的佛塔，位于北京市海淀区，建筑风格为地方特色风格。建筑面积4202平方米，高10米，目前保存状况较好。
南京市北钟楼,唐朝,钟楼,江苏省南京市,25.675943786539072,117.41472641771006,2,820,较好,传统建筑风格,3072.1666637658723,9.804709657711312,这是一座建于唐朝（公元820年）的钟楼，位于江苏省南京市，建筑风格为传统建筑风格。建筑面积3072平方米，高9米，目前保存状况较好。是第2批重点文物保护单位。
宁波市北官邸,明朝,官邸,浙江省宁波市,20.535039570661407,100.65898911454447,6,1518,较好,传统建筑风格,850.735752500364,13.443408042325414,这是一座建于明朝（公元1518年）的官邸，位于浙江省宁波市，建筑风格为传统建筑风格。建筑面积850平方米，高13米，目前保存状况较好。
汉中市南城门,清朝,城门,陕西省汉中市,30.02819684082455,104.28100882262989,6,1768,完好,地方特色风格,2609.745045480231,15.030277741885126,这是一座建于清朝（公元1768年）的城门，位于陕西省汉中市，建筑风格为地方特色风格。建筑面积2609平方米，高15米，目前保存状况完好。
绍兴市北牌坊,元朝,牌坊,浙江省绍兴市,39.350131730266185,110.80633900023318,4,1281,较好,传统建筑风格,3864.643406053839,8.472550804459171,这是一座建于元朝（公元1281年）的牌坊，位于浙江省绍兴市，建筑风格为传统建筑风格。建筑面积3864平方米，高8米，目前保存状况较好。是第4批重点文物保护单位。
海淀区西钟楼,明朝,钟楼,北京市海淀区,28.64971917932802,111.64839151953197,6,1482,一般,地方特色风格,2057.2357568985562,12.62383847056403,这是一座建于明朝（公元1482年）的钟楼，位于北京市海淀区，建筑风格为地方特色风格。建筑面积2057平方米，高12米，目前保存状况一般。
朝阳区北民居,清朝,民居,北京市朝阳区,35.352718899087215,116.73685087243018,6,1903,完好,徽派民居风格,424.0467805331758,9.288606195890159,这是一座建于清朝（公元1903年）的民居，位于北京市朝阳区，建筑风格为徽派民居风格。建筑面积424平方米，高9米，目前保存状况完好。
朝阳区北宫殿,唐朝,宫殿,北京市朝阳区,31.114899061091187,112.63726571336376,2,678,较好,重檐歇山顶风格,33865.69204345386,20.107776584974484,这是一座建于唐朝（公元678年）的宫殿，位于北京市朝阳区，建筑风格为重檐歇山顶风格。建筑面积33865平方米，高20米，目前保存状况较好。是第2批重点文物保护单位。
苏州市南城门,唐朝,城门,江苏省苏州市,38.48855420263844,115.02324997469849,2,901,完好,地方特色风格,3758.6266486683603,17.116811948127452,这是一座建于唐朝（公元901年）的城门，位于江苏省苏州市，建筑风格为地方特色风格。建筑面积3758平方米，高17米，目前保存状况完好。是第2批重点文物保护单位。
平遥县南塔楼,清朝,塔楼,山西省平遥县,25.120304049636736,110.18056104552801,5,1767,完好,地方特色风格,1766.9737984426254,13.884360878273217,这是一座建于清朝（公元1767年）的塔楼，位于山西省平遥县，建筑风格为地方特色风格。建筑面积1766平方米，高13米，目前保存状况完好。
宁波市南城门,元朝,城门,浙江省宁波市,30.25437323578235,119.0969357812427,3,1305,较好,地方特色风格,4480.852606339935,15.254425132475681,这是一座建于元朝（公元1305年）的城门，位于浙江省宁波市，建筑风格为地方特色风格。建筑面积4480平方米，高15米，目前保存状况较好。是第3批重点文物保护单位。
汉中市东庙宇,明朝,庙宇,陕西省汉中市,30.32938709150489,116.94135997922447,1,1393,较好,地方特色风格,3372.882219080438,9.407348439583366,这是一座建于明朝（公元1393年）的庙宇，位于陕西省汉中市，建筑风格为地方特色风格。建筑面积3372平方米，高9米，目前保存状况较好。是第1批重点文物保护单位。
厦门市南道观,唐朝,道观,福建省厦门市,27.506712781603817,103.39439516438388,3,826,较好,地方特色风格,1288.8356648674921,10.01503981596626,这是一座建于唐朝（公元826年）的道观，位于福建省厦门市，建筑风格为地方特色风格。建筑面积1288平方米，高10米，目前保存状况较好。是第3批重点文物保护单位。
厦门市西庙宇,明朝,庙宇,福建省厦门市,39.6149781970822,100.7867577132594,2,1417,较好,地方特色风格,1120.8556297094042,18.927407005896782,这是一座建于明朝（公元1417年）的庙宇，位于福建省厦门市，建筑风格为地方特色风格。建筑面积1120平方米，高18米，目前保存状况较好。是第2批重点文物保护单位。
延安市东祠堂,元朝,祠堂,陕西省延安市,33.528902490832735,115.29685550548083,2,1316,完好,徽派建筑风格,896.3681467384914,7.492546678379978,这是一座建于元朝（公元1316年）的祠堂，位于陕西省延安市，建筑风格为徽派建筑风格。建筑面积896平方米，高7米，目前保存状况完好。是第2批重点文物保护单位。
朝阳区东佛塔,明朝,佛塔,北京市朝阳区,35.805272039281135,102.95048317553358,5,1565,完好,地方特色风格,3099.816632283828,8.657188757131804,这是一座建于明朝（公元1565年）的佛塔，位于北京市朝阳区，建筑风格为地方特色风格。建筑面积3099平方米，高8米，目前保存状况完好。
湖州市东城门,明朝,城门,浙江省湖州市,26.222807236968585,114.63329047285929,6,1597,较好,地方特色风格,3038.51029299542,16.392108588371357,这是一座建于明朝（公元1597年）的城门，位于浙江省湖州市，建筑风格为地方特色风格。建筑面积3038平方米，高16米，目前保存状况较好。
福州市东塔楼,明朝,塔楼,福建省福州市,38.44429078896173,107.57988864317016,7,1504,较好,传统建筑风格,960.3682617001527,12.198198410475793,这是一座建于明朝（公元1504年）的塔楼，位于福建省福州市，建筑风格为传统建筑风格。建筑面积960平方米，高12米，目前保存状况较好。
泉州市中塔楼,唐朝,塔楼,福建省泉州市,33.38706692892748,106.3641734742346,8,844,一般,传统建筑风格,1132.9922845621666,8.586936694673023,这是一座建于唐朝（公元844年）的塔楼，位于福建省泉州市，建筑风格为传统建筑风格。建筑面积1132平方米，高8米，目前保存状况一般。
镇江市东宫殿,明朝,宫殿,江苏省镇江市,30.37624729580436,110.7190611903348,5,1624,较好,攒尖顶风格,30482.930526811735,20.093683540992224,这是一座建于明朝（公元1624年）的宫殿，位于江苏省镇江市，建筑风格为攒尖顶风格。建筑面积30482平方米，高20米，目前保存状况较好。
宁波市中桥梁,唐朝,桥梁,浙江省宁波市,39.843304485359724,115.9475030307094,6,790,较差,地方特色风格,1603.7419284319988,11.317378290488433,这是一座建于唐朝（公元790年）的桥梁，位于浙江省宁波市，建筑风格为地方特色风格。建筑面积1603平方米，高11米，目前保存状况较差。
平遥县中古城墙,元朝,古城墙,山西省平遥县,38.85639646501893,112.42881912004746,3,1344,完好,地方特色风格,4666.9737072226235,13.209765177602987,这是一座建于元朝（公元1344年）的古城墙，位于山西省平遥县，建筑风格为地方特色风格。建筑面积4666平方米，高13米，目前保存状况完好。是第3批重点文物保护单位。
宁波市北城门,元朝,城门,浙江省宁波市,34.472370306619666,116.45081470571739,7,1287,较差,地方特色风格,2334.604582224323,19.294622555125834,这是一座建于元朝（公元1287年）的城门，位于浙江省宁波市，建筑风格为地方特色风格。建筑面积2334平方米，高19米，目前保存状况较差。
大同市西园林,宋朝,园林,山西省大同市,24.895877578617757,118.2386660926127,3,1275,较好,岭南园林风格,2475.367114314836,13.33816329210471,这是一座建于宋朝（公元1275年）的园林，位于山西省大同市，建筑风格为岭南园林风格。建筑面积2475平方米，高13米，目前保存状况较好。是第3批重点文物保护单位。
海淀区西民居,宋朝,民居,北京市海淀区,35.32469748697386,116.31101324552995,2,1065,完好,徽派民居风格,838.7276640459728,7.6570380053480145,这是一座建于宋朝（公元1065年）的民居，位于北京市海淀区，建筑风格为徽派民居风格。建筑面积838平方米，高7米，目前保存状况完好。是第2批重点文物保护单位。
西城区东桥梁,宋朝,桥梁,北京市西城区,20.330212068930496,105.61419544343971,5,968,一般,传统建筑风格,3314.5889925899914,8.95783025372539,这是一座建于宋朝（公元968年）的桥梁，位于北京市西城区，建筑风格为传统建筑风格。建筑面积3314平方米，高8米，目前保存状况一般。
太原市南祠堂,明朝,祠堂,山西省太原市,33.08221214331385,107.37939352206193,3,1449,较好,岭南祠堂风格,732.43620845192,6.195417335706556,这是一座建于明朝（公元1449年）的祠堂，位于山西省太原市，建筑风格为岭南祠堂风格。建筑面积732平方米，高6米，目前保存状况较好。是第3批重点文物保护单位。
汉中市东道观,唐朝,道观,陕西省汉中市,22.174790930699917,106.28149797701234,4,629,完好,传统建筑风格,4705.535964566654,15.306971574378945,这是一座建于唐朝（公元629年）的道观，位于陕西省汉中市，建筑风格为传统建筑风格。建筑面积4705平方米，高15米，目前保存状况完好。是第4批重点文物保护单位。
宁波市中祠堂,宋朝,祠堂,浙江省宁波市,26.308038793201902,110.71864806870217,1,971,完好,江南祠堂风格,886.5153966098161,7.4009791113712105,这是一座建于宋朝（公元971年）的祠堂，位于浙江省宁波市，建筑风格为江南祠堂风格。建筑面积886平方米，高7米，目前保存状况完好。是第1批重点文物保护单位。
咸阳市东园林,唐朝,园林,陕西省咸阳市,24.451675391108623,102.04472861180037,4,726,完好,岭南园林风格,1796.8174028115077,14.945879875177223,这是一座建于唐朝（公元726年）的园林，位于陕西省咸阳市，建筑风格为岭南园林风格。建筑面积1796平方米，高14米，目前保存状况完好。是第4批重点文物保护单位。
大同市东民居,唐朝,民居,山西省大同市,22.63119984180156,105.50525135844988,2,713,较好,北方四合院风格,611.2799513752068,9.082742054171566,这是一座建于唐朝（公元713年）的民居，位于山西省大同市，建筑风格为北方四合院风格。建筑面积611平方米，高9米，目前保存状况较好。是第2批重点文物保护单位。
太原市西驿站,清朝,驿站,山西省太原市,20.473889372040944,116.57798900421665,6,1882,较好,传统建筑风格,3463.4897855746385,18.871524237090977,这是一座建于清朝（公元1882年）的驿站，位于山西省太原市，建筑风格为传统建筑风格。建筑面积3463平方米，高18米，目前保存状况较好。
咸阳市南桥梁,清朝,桥梁,陕西省咸阳市,30.60399866271602,104.64482351486271,8,1753,较好,传统建筑风格,1894.9583283393845,15.911003373696902,这是一座建于清朝（公元1753年）的桥梁，位于陕西省咸阳市，建筑风格为传统建筑风格。建筑面积1894平方米，高15米，目前保存状况较好。
苏州市中园林,唐朝,园林,江苏省苏州市,22.092682591141966,100.50248203347064,5,799,一般,北方园林风格,2052.119365482001,9.840995645842392,这是一座建于唐朝（公元799年）的园林，位于江苏省苏州市，建筑风格为北方园林风格。建筑面积2052平方米，高9米，目前保存状况一般。
绍兴市北鼓楼,清朝,鼓楼,浙江省绍兴市,37.084625476198596,110.01839330758644,5,1708,完好,地方特色风格,2727.3454895107543,8.53022509448989,这是一座建于清朝（公元1708年）的鼓楼，位于浙江省绍兴市，建筑风格为地方特色风格。建筑面积2727平方米，高8米，目前保存状况完好。
福州市中驿站,宋朝,驿站,福建省福州市,34.64988469732244,119.77365630529188,7,1016,较差,地方特色风格,2804.2084081886665,10.000436521044637,这是一座建于宋朝（公元1016年）的驿站，位于福建省福州市，建筑风格为地方特色风格。建筑面积2804平方米，高10米，目前保存状况较差。
镇江市西庙宇,唐朝,庙宇,江苏省镇江市,33.367478735102296,113.71683306210983,4,703,完好,地方特色风格,1255.5385651040801,14.674539586711266,这是一座建于唐朝（公元703年）的庙宇，位于江苏省镇江市，建筑风格为地方特色风格。建筑面积1255平方米，高14米，目前保存状况完好。是第4批重点文物保护单位。
湖州市南庙宇,明朝,庙宇,浙江省湖州市,32.79989023141764,119.12019543078216,1,1420,较好,地方特色风格,936.297054344588,12.66171760558699,这是一座建于明朝（公元1420年）的庙宇，位于浙江省湖州市，建筑风格为地方特色风格。建筑面积936平方米，高12米，目前保存状况较好。是第1批重点文物保护单位。
太原市北古城墙,唐朝,古城墙,山西省太原市,38.513207987126236,107.89570154832103,2,827,较好,地方特色风格,3766.541317333742,15.608412656489378,这是一座建于唐朝（公元827年）的古城墙，位于山西省太原市，建筑风格为地方特色风格。建筑面积3766平方米，高15米，目前保存状况较好。是第2批重点文物保护单位。
太原市西戏台,唐朝,戏台,山西省太原市,22.664713744449504,106.69952062393729,6,754,一般,传统建筑风格,2934.8590202041264,10.335760857631008,这是一座建于唐朝（公元754年）的戏台，位于山西省太原市，建筑风格为传统建筑风格。建筑面积2934平方米，高10米，目前保存状况一般。
朝阳区中鼓楼,元朝,鼓楼,北京市朝阳区,23.823782809286005,103.3950465132283,7,1283,一般,传统建筑风格,3753.0326117618124,13.353758689577463,这是一座建于元朝（公元1283年）的鼓楼，位于北京市朝阳区，建筑风格为传统建筑风格。建筑面积3753平方米，高13米，目前保存状况一般。
漳州市中塔楼,明朝,塔楼,福建省漳州市,38.98171910530334,119.82016529322077,7,1514,完好,地方特色风格,4385.723999865466,10.235764588430282,这是一座建于明朝（公元1514年）的塔楼，位于福建省漳州市，建筑风格为地方特色风格。建筑面积4385平方米，高10米，目前保存状况完好。
绍兴市东鼓楼,明朝,鼓楼,浙江省绍兴市,27.91488195358704,111.1018903996119,3,1421,较好,传统建筑风格,1059.8663921890493,13.376434857794614,这是一座建于明朝（公元1421年）的鼓楼，位于浙江省绍兴市，建筑风格为传统建筑风格。建筑面积1059平方米，高13米，目前保存状况较好。是第3批重点文物保护单位。
东城区东祠堂,唐朝,祠堂,北京市东城区,30.732746582267275,104.91591700233755,3,795,较好,江南祠堂风格,847.6710126449763,8.701362000959652,这是一座建于唐朝（公元795年）的祠堂，位于北京市东城区，建筑风格为江南祠堂风格。建筑面积847平方米，高8米，目前保存状况较好。是第3批重点文物保护单位。
西城区北宫殿,明朝,宫殿,北京市西城区,32.74452873966151,100.29617423464516,2,1400,完好,重檐歇山顶风格,38503.12316066305,29.509755800971867,这是一座建于明朝（公元1400年）的宫殿，位于北京市西城区，建筑风格为重檐歇山顶风格。建筑面积38503平方米，高29米，目前保存状况完好。是第2批重点文物保护单位。
漳州市南塔楼,元朝,塔楼,福建省漳州市,37.768613738965854,105.2276949831853,2,1322,较好,地方特色风格,3049.510104567493,17.624770216234158,这是一座建于元朝（公元1322年）的塔楼，位于福建省漳州市，建筑风格为地方特色风格。建筑面积3049平方米，高17米，目前保存状况较好。是第2批重点文物保护单位。
咸阳市中庙宇,唐朝,庙宇,陕西省咸阳市,37.121187991654615,109.48852367425833,8,666,一般,传统建筑风格,3033.589473176363,14.759035226678304,这是一座建于唐朝（公元666年）的庙宇，位于陕西省咸阳市，建筑风格为传统建筑风格。建筑面积3033平方米，高14米，目前保存状况一般。
大同市东牌坊,唐朝,牌坊,山西省大同市,37.69621686592597,110.34897303592919,2,784,完好,地方特色风格,3290.0415731734543,14.210952047990478,这是一座建于唐朝（公元784年）的牌坊，位于山西省大同市，建筑风格为地方特色风格。建筑面积3290平方米，高14米，目前保存状况完好。是第2批重点文物保护单位。
延安市南道观,宋朝,道观,陕西省延安市,33.8972564355303,116.52816637512664,3,1120,较好,传统建筑风格,4943.902708292582,18.169039994503382,这是一座建于宋朝（公元1120年）的道观，位于陕西省延安市，建筑风格为传统建筑风格。建筑面积4943平方米，高18米，目前保存状况较好。是第3批重点文物保护单位。
镇江市西祠堂,唐朝,祠堂,江苏省镇江市,32.971078313300794,112.65626544625951,4,900,完好,岭南祠堂风格,1847.2633741533898,8.529066256833682,这是一座建于唐朝（公元900年）的祠堂，位于江苏省镇江市，建筑风格为岭南祠堂风格。建筑面积1847平方米，高8米，目前保存状况完好。是第4批重点文物保护单位。
晋中市中戏台,元朝,戏台,山西省晋中市,34.13834289521305,117.71123006029774,3,1314,较好,地方特色风格,1090.1237581700962,10.652460692754882,这是一座建于元朝（公元1314年）的戏台，位于山西省晋中市，建筑风格为地方特色风格。建筑面积1090平方米，高10米，目前保存状况较好。是第3批重点文物保护单位。
湖州市北牌坊,清朝,牌坊,浙江省湖州市,33.47305920829013,101.69852048132685,8,1655,较好,传统建筑风格,4281.993928394977,13.633365781484057,这是一座建于清朝（公元1655年）的牌坊，位于浙江省湖州市，建筑风格为传统建筑风格。建筑面积4281平方米，高13米，目前保存状况较好。
